code_commune,commune,code_departement,departement,epci_code,epci_nom,population_2023,licences_ffn_2023,bassins_total,typo,latitude,longitude,nearest_installation_id,nearest_installation,nearest_installation_commune,nearest_installation_epci,crow_distance_to_nearest_installation_km,drive_distance_to_nearest_installation_km,drive_time_to_nearest_installation_min
02001,Abbécourt,02,02 - Aisne,200071785,Communauté d'agglomération Chauny-Tergnier-La Fère,513,9,0,2.Urbain intermédiaire,49.5997,3.1824,I021730004,Espace Aquatique Oasis,Chauny,CA Chauny-Tergnier-La Fère,3.068,3.885,9.44
02002,Achery,02,02 - Aisne,200071785,Communauté d'agglomération Chauny-Tergnier-La Fère,586,1,0,4.Rural non périurbain,49.6935,3.3974,I020590004,Piscine Lucien Lahaye,Beautor,CA Chauny-Tergnier-La Fère,6.732,9.452,16.85
02014,Amigny-Rouy,02,02 - Aisne,200071785,Communauté d'agglomération Chauny-Tergnier-La Fère,710,9,0,4.Rural non périurbain,49.6111,3.3059,I021730004,Espace Aquatique Oasis,Chauny,CA Chauny-Tergnier-La Fère,6.792,10.167,12.78
02016,Andelain,02,02 - Aisne,200071785,Communauté d'agglomération Chauny-Tergnier-La Fère,211,4,0,4.Rural non périurbain,49.6428,3.3686,I020590004,Piscine Lucien Lahaye,Beautor,CA Chauny-Tergnier-La Fère,1.8,5.12,8.56
02017,Anguilcourt-le-Sart,02,02 - Aisne,200071785,Communauté d'agglomération Chauny-Tergnier-La Fère,281,2,0,4.Rural non périurbain,49.6971,3.424,I020590004,Piscine Lucien Lahaye,Beautor,CA Chauny-Tergnier-La Fère,8.268,13.486,17.4
02041,Autreville,02,02 - Aisne,200071785,Communauté d'agglomération Chauny-Tergnier-La Fère,791,13,0,4.Rural non périurbain,49.5878,3.2378,I021730004,Espace Aquatique Oasis,Chauny,CA Chauny-Tergnier-La Fère,3.943,4.518,7.18
02056,Beaumont-en-Beine,02,02 - Aisne,200071785,Communauté d'agglomération Chauny-Tergnier-La Fère,172,2,0,4.Rural non périurbain,49.6876,3.1317,I021730004,Espace Aquatique Oasis,Chauny,CA Chauny-Tergnier-La Fère,9.571,11.803,13.64
02059,Beautor,02,02 - Aisne,200071785,Communauté d'agglomération Chauny-Tergnier-La Fère,2625,6,2,2.Urbain intermédiaire,49.6472,3.3361,I020590004,Piscine Lucien Lahaye,Beautor,CA Chauny-Tergnier-La Fère,0.654,1.421,5.0
02074,Bertaucourt-Epourdon,02,02 - Aisne,200071785,Communauté d'agglomération Chauny-Tergnier-La Fère,586,7,0,3.Rural périurbain,49.6283,3.3988,I020590004,Piscine Lucien Lahaye,Beautor,CA Chauny-Tergnier-La Fère,4.335,6.637,10.07
02086,Bichancourt,02,02 - Aisne,200071785,Communauté d'agglomération Chauny-Tergnier-La Fère,989,2,0,4.Rural non périurbain,49.5787,3.2135,I021730004,Espace Aquatique Oasis,Chauny,CA Chauny-Tergnier-La Fère,4.507,6.647,10.39
02122,Brie,02,02 - Aisne,200071785,Communauté d'agglomération Chauny-Tergnier-La Fère,54,0,0,3.Rural périurbain,49.5992,3.4722,I020370001,Complexe sportif,Aulnois-sous-Laon,CA du Pays de Laon,10.236,13.357,16.42
02081,Béthancourt-en-Vaux,02,02 - Aisne,200071785,Communauté d'agglomération Chauny-Tergnier-La Fère,425,7,0,4.Rural non périurbain,49.6274,3.1376,I021730004,Espace Aquatique Oasis,Chauny,CA Chauny-Tergnier-La Fère,5.469,7.965,11.94
02139,Caillouël-Crépigny,02,02 - Aisne,200071785,Communauté d'agglomération Chauny-Tergnier-La Fère,459,8,0,4.Rural non périurbain,49.6174,3.1226,I021730004,Espace Aquatique Oasis,Chauny,CA Chauny-Tergnier-La Fère,6.477,9.708,10.88
02145,Caumont,02,02 - Aisne,200071785,Communauté d'agglomération Chauny-Tergnier-La Fère,546,0,0,4.Rural non périurbain,49.6374,3.173,I021730004,Espace Aquatique Oasis,Chauny,CA Chauny-Tergnier-La Fère,3.488,4.111,5.84
02165,Charmes,02,02 - Aisne,200071785,Communauté d'agglomération Chauny-Tergnier-La Fère,1596,7,0,2.Urbain intermédiaire,49.6524,3.3834,I020590004,Piscine Lucien Lahaye,Beautor,CA Chauny-Tergnier-La Fère,3.012,5.652,9.5
02173,Chauny,02,02 - Aisne,200071785,Communauté d'agglomération Chauny-Tergnier-La Fère,11456,95,3,2.Urbain intermédiaire,49.6185,3.2192,I021730004,Espace Aquatique Oasis,Chauny,CA Chauny-Tergnier-La Fère,0.492,0.71,1.46
02207,Commenchon,02,02 - Aisne,200071785,Communauté d'agglomération Chauny-Tergnier-La Fère,219,3,0,4.Rural non périurbain,49.6415,3.1488,I021730004,Espace Aquatique Oasis,Chauny,CA Chauny-Tergnier-La Fère,5.212,6.731,9.49
02212,Condren,02,02 - Aisne,200071785,Communauté d'agglomération Chauny-Tergnier-La Fère,682,1,0,2.Urbain intermédiaire,49.6332,3.2767,I021730004,Espace Aquatique Oasis,Chauny,CA Chauny-Tergnier-La Fère,4.88,6.621,8.46
02222,Courbes,02,02 - Aisne,200071785,Communauté d'agglomération Chauny-Tergnier-La Fère,39,0,0,4.Rural non périurbain,49.6804,3.4567,I020590004,Piscine Lucien Lahaye,Beautor,CA Chauny-Tergnier-La Fère,9.09,12.054,17.01
02260,Danizy,02,02 - Aisne,200071785,Communauté d'agglomération Chauny-Tergnier-La Fère,624,3,0,2.Urbain intermédiaire,49.6658,3.4037,I020590004,Piscine Lucien Lahaye,Beautor,CA Chauny-Tergnier-La Fère,4.959,8.488,16.35
02262,Deuillet,02,02 - Aisne,200071785,Communauté d'agglomération Chauny-Tergnier-La Fère,202,2,0,4.Rural non périurbain,49.6271,3.3571,I020590004,Piscine Lucien Lahaye,Beautor,CA Chauny-Tergnier-La Fère,2.108,4.503,7.93
02329,Fourdrain,02,02 - Aisne,200071785,Communauté d'agglomération Chauny-Tergnier-La Fère,414,1,0,3.Rural périurbain,49.617,3.4569,I020590004,Piscine Lucien Lahaye,Beautor,CA Chauny-Tergnier-La Fère,8.689,10.771,13.35
02335,Fressancourt,02,02 - Aisne,200071785,Communauté d'agglomération Chauny-Tergnier-La Fère,171,1,0,3.Rural périurbain,49.629,3.4289,I020590004,Piscine Lucien Lahaye,Beautor,CA Chauny-Tergnier-La Fère,6.359,8.355,11.03
02336,Frières-Faillouël,02,02 - Aisne,200071785,Communauté d'agglomération Chauny-Tergnier-La Fère,976,5,0,4.Rural non périurbain,49.6841,3.2366,I021730004,Espace Aquatique Oasis,Chauny,CA Chauny-Tergnier-La Fère,7.419,11.641,12.89
02362,Guivry,02,02 - Aisne,200071785,Communauté d'agglomération Chauny-Tergnier-La Fère,239,2,0,4.Rural non périurbain,49.6504,3.1196,I021730004,Espace Aquatique Oasis,Chauny,CA Chauny-Tergnier-La Fère,7.533,9.839,11.34
02304,La Fère,02,02 - Aisne,200071785,Communauté d'agglomération Chauny-Tergnier-La Fère,2860,3,0,2.Urbain intermédiaire,49.6683,3.3694,I020590004,Piscine Lucien Lahaye,Beautor,CA Chauny-Tergnier-La Fère,3.282,5.757,9.43
02546,La Neuville-en-Beine,02,02 - Aisne,200071785,Communauté d'agglomération Chauny-Tergnier-La Fère,191,0,0,4.Rural non périurbain,49.6759,3.1583,I021730004,Espace Aquatique Oasis,Chauny,CA Chauny-Tergnier-La Fère,7.411,9.671,12.53
02431,Liez,02,02 - Aisne,200071785,Communauté d'agglomération Chauny-Tergnier-La Fère,383,1,0,4.Rural non périurbain,49.6933,3.3002,I020590004,Piscine Lucien Lahaye,Beautor,CA Chauny-Tergnier-La Fère,6.317,8.354,13.37
02456,Manicamp,02,02 - Aisne,200071785,Communauté d'agglomération Chauny-Tergnier-La Fère,306,4,0,4.Rural non périurbain,49.5653,3.1805,I021730004,Espace Aquatique Oasis,Chauny,CA Chauny-Tergnier-La Fère,6.424,10.856,14.56
02461,Marest-Dampcourt,02,02 - Aisne,200071785,Communauté d'agglomération Chauny-Tergnier-La Fère,342,4,0,4.Rural non périurbain,49.5942,3.1488,I021730004,Espace Aquatique Oasis,Chauny,CA Chauny-Tergnier-La Fère,5.366,6.853,8.47
02473,Mayot,02,02 - Aisne,200071785,Communauté d'agglomération Chauny-Tergnier-La Fère,213,0,0,3.Rural périurbain,49.7093,3.3962,I020590004,Piscine Lucien Lahaye,Beautor,CA Chauny-Tergnier-La Fère,8.192,11.201,21.35
02474,Mennessis,02,02 - Aisne,200071785,Communauté d'agglomération Chauny-Tergnier-La Fère,407,1,0,4.Rural non périurbain,49.6915,3.2726,I021730004,Espace Aquatique Oasis,Chauny,CA Chauny-Tergnier-La Fère,9.128,12.517,14.79
02492,Monceau-lès-Leups,02,02 - Aisne,200071785,Communauté d'agglomération Chauny-Tergnier-La Fère,434,3,0,3.Rural périurbain,49.6621,3.4813,I020590004,Piscine Lucien Lahaye,Beautor,CA Chauny-Tergnier-La Fère,10.112,14.973,22.7
02542,Neuflieux,02,02 - Aisne,200071785,Communauté d'agglomération Chauny-Tergnier-La Fère,78,2,0,4.Rural non périurbain,49.6173,3.1596,I021730004,Espace Aquatique Oasis,Chauny,CA Chauny-Tergnier-La Fère,3.815,5.09,6.35
02566,Ognes,02,02 - Aisne,200071785,Communauté d'agglomération Chauny-Tergnier-La Fère,1113,16,0,2.Urbain intermédiaire,49.616,3.1897,I021730004,Espace Aquatique Oasis,Chauny,CA Chauny-Tergnier-La Fère,1.679,2.501,3.28
02599,Pierremande,02,02 - Aisne,200071785,Communauté d'agglomération Chauny-Tergnier-La Fère,249,1,0,4.Rural non périurbain,49.5662,3.2535,I021730004,Espace Aquatique Oasis,Chauny,CA Chauny-Tergnier-La Fère,6.597,7.233,10.85
02631,Quierzy,02,02 - Aisne,200071785,Communauté d'agglomération Chauny-Tergnier-La Fère,419,2,0,4.Rural non périurbain,49.5638,3.1466,I021730004,Espace Aquatique Oasis,Chauny,CA Chauny-Tergnier-La Fère,7.78,11.421,13.27
02651,Rogécourt,02,02 - Aisne,200071785,Communauté d'agglomération Chauny-Tergnier-La Fère,94,0,0,3.Rural périurbain,49.6493,3.4141,I020590004,Piscine Lucien Lahaye,Beautor,CA Chauny-Tergnier-La Fère,5.106,9.804,14.37
02680,Saint-Gobain,02,02 - Aisne,200071785,Communauté d'agglomération Chauny-Tergnier-La Fère,2313,10,0,4.Rural non périurbain,49.5966,3.394,I020590004,Piscine Lucien Lahaye,Beautor,CA Chauny-Tergnier-La Fère,6.392,9.402,14.47
02685,Saint-Nicolas-aux-Bois,02,02 - Aisne,200071785,Communauté d'agglomération Chauny-Tergnier-La Fère,116,0,0,3.Rural périurbain,49.6005,3.4391,I020590004,Piscine Lucien Lahaye,Beautor,CA Chauny-Tergnier-La Fère,8.402,12.137,16.72
02716,Servais,02,02 - Aisne,200071785,Communauté d'agglomération Chauny-Tergnier-La Fère,290,0,0,4.Rural non périurbain,49.6194,3.3422,I020590004,Piscine Lucien Lahaye,Beautor,CA Chauny-Tergnier-La Fère,2.731,6.019,10.22
02719,Sinceny,02,02 - Aisne,200071785,Communauté d'agglomération Chauny-Tergnier-La Fère,1988,19,0,4.Rural non périurbain,49.5931,3.2668,I021730004,Espace Aquatique Oasis,Chauny,CA Chauny-Tergnier-La Fère,4.875,7.7,11.25
02738,Tergnier,02,02 - Aisne,200071785,Communauté d'agglomération Chauny-Tergnier-La Fère,13261,37,0,2.Urbain intermédiaire,49.6562,3.2949,I020590004,Piscine Lucien Lahaye,Beautor,CA Chauny-Tergnier-La Fère,3.766,4.747,9.99
02746,Travecy,02,02 - Aisne,200071785,Communauté d'agglomération Chauny-Tergnier-La Fère,683,4,0,4.Rural non périurbain,49.685,3.3454,I020590004,Piscine Lucien Lahaye,Beautor,CA Chauny-Tergnier-La Fère,4.567,5.548,13.36
02754,Ugny-le-Gay,02,02 - Aisne,200071785,Communauté d'agglomération Chauny-Tergnier-La Fère,186,5,0,4.Rural non périurbain,49.6623,3.1569,I021730004,Espace Aquatique Oasis,Chauny,CA Chauny-Tergnier-La Fère,6.241,7.161,9.45
02788,Versigny,02,02 - Aisne,200071785,Communauté d'agglomération Chauny-Tergnier-La Fère,467,0,0,3.Rural périurbain,49.6571,3.4435,I020590004,Piscine Lucien Lahaye,Beautor,CA Chauny-Tergnier-La Fère,7.335,10.908,13.78
02807,Villequier-Aumont,02,02 - Aisne,200071785,Communauté d'agglomération Chauny-Tergnier-La Fère,675,2,0,4.Rural non périurbain,49.66,3.1991,I021730004,Espace Aquatique Oasis,Chauny,CA Chauny-Tergnier-La Fère,4.635,5.546,7.39
02820,Viry-Noureuil,02,02 - Aisne,200071785,Communauté d'agglomération Chauny-Tergnier-La Fère,1682,17,0,2.Urbain intermédiaire,49.6355,3.2483,I021730004,Espace Aquatique Oasis,Chauny,CA Chauny-Tergnier-La Fère,3.152,3.436,5.39
02003,Acy,02,02 - Aisne,240200477,Communauté d'agglomération GrandSoissons Agglomération,1013,13,0,3.Rural périurbain,49.3476,3.4188,I020710003,"Camping ""La Croix du vieux Pont",Berny-Rivière,CC Retz-en-Valois,21.908,26.943,28.87
02043,Bagneux,02,02 - Aisne,240200477,Communauté d'agglomération GrandSoissons Agglomération,62,0,0,3.Rural périurbain,49.4595,3.2776,I020710003,"Camping ""La Croix du vieux Pont",Berny-Rivière,CC Retz-en-Valois,12.315,16.625,19.99
02064,Belleu,02,02 - Aisne,240200477,Communauté d'agglomération GrandSoissons Agglomération,3624,9,0,2.Urbain intermédiaire,49.3597,3.3439,I020710003,"Camping ""La Croix du vieux Pont",Berny-Rivière,CC Retz-en-Valois,16.329,19.424,22.7
02564,Bernoy-le-Château,02,02 - Aisne,240200477,Communauté d'agglomération GrandSoissons Agglomération,840,2,0,3.Rural périurbain,49.32,3.3067,I028100025,Piscine Intercommunale de Villers-Cotterêts,Villers-Cotterêts,CC Retz-en-Valois,17.215,23.113,32.31
02089,Billy-sur-Aisne,02,02 - Aisne,240200477,Communauté d'agglomération GrandSoissons Agglomération,1141,4,0,3.Rural périurbain,49.3555,3.3753,I020710003,"Camping ""La Croix du vieux Pont",Berny-Rivière,CC Retz-en-Valois,18.638,24.005,28.36
02175,Chavigny,02,02 - Aisne,240200477,Communauté d'agglomération GrandSoissons Agglomération,159,0,0,3.Rural périurbain,49.4229,3.309,I020710003,"Camping ""La Croix du vieux Pont",Berny-Rivière,CC Retz-en-Valois,13.149,17.023,24.55
02226,Courmelles,02,02 - Aisne,240200477,Communauté d'agglomération GrandSoissons Agglomération,1831,3,0,2.Urbain intermédiaire,49.3456,3.2994,I028100025,Piscine Intercommunale de Villers-Cotterêts,Villers-Cotterêts,CC Retz-en-Valois,18.043,21.681,22.06
02243,Crouy,02,02 - Aisne,240200477,Communauté d'agglomération GrandSoissons Agglomération,3041,7,0,2.Urbain intermédiaire,49.4073,3.3684,I020710003,"Camping ""La Croix du vieux Pont",Berny-Rivière,CC Retz-en-Valois,17.299,25.118,23.97
02245,Cuffies,02,02 - Aisne,240200477,Communauté d'agglomération GrandSoissons Agglomération,1760,8,0,2.Urbain intermédiaire,49.4086,3.3197,I020710003,"Camping ""La Croix du vieux Pont",Berny-Rivière,CC Retz-en-Valois,13.779,16.925,22.48
02253,Cuisy-en-Almont,02,02 - Aisne,240200477,Communauté d'agglomération GrandSoissons Agglomération,358,0,0,3.Rural périurbain,49.422,3.2452,I020710003,"Camping ""La Croix du vieux Pont",Berny-Rivière,CC Retz-en-Valois,8.592,11.53,17.07
02398,Juvigny,02,02 - Aisne,240200477,Communauté d'agglomération GrandSoissons Agglomération,286,0,0,3.Rural périurbain,49.4488,3.3178,I020710003,"Camping ""La Croix du vieux Pont",Berny-Rivière,CC Retz-en-Valois,14.474,20.244,23.62
02424,Leury,02,02 - Aisne,240200477,Communauté d'agglomération GrandSoissons Agglomération,102,0,0,3.Rural périurbain,49.4246,3.3415,I020710003,"Camping ""La Croix du vieux Pont",Berny-Rivière,CC Retz-en-Valois,15.502,20.278,27.7
02477,Mercin-et-Vaux,02,02 - Aisne,240200477,Communauté d'agglomération GrandSoissons Agglomération,945,6,0,3.Rural périurbain,49.3675,3.2693,I028100025,Piscine Intercommunale de Villers-Cotterêts,Villers-Cotterêts,CC Retz-en-Valois,17.758,21.998,17.12
02485,Missy-aux-Bois,02,02 - Aisne,240200477,Communauté d'agglomération GrandSoissons Agglomération,98,2,0,3.Rural périurbain,49.3353,3.2491,I028100025,Piscine Intercommunale de Villers-Cotterêts,Villers-Cotterêts,CC Retz-en-Valois,14.37,17.873,13.88
02576,Osly-Courtil,02,02 - Aisne,240200477,Communauté d'agglomération GrandSoissons Agglomération,325,0,0,3.Rural périurbain,49.4,3.2363,I020710003,"Camping ""La Croix du vieux Pont",Berny-Rivière,CC Retz-en-Valois,7.76,8.638,11.56
02593,Pasly,02,02 - Aisne,240200477,Communauté d'agglomération GrandSoissons Agglomération,1061,2,0,3.Rural périurbain,49.4017,3.2969,I020710003,"Camping ""La Croix du vieux Pont",Berny-Rivière,CC Retz-en-Valois,12.13,14.796,20.05
02607,Ploisy,02,02 - Aisne,240200477,Communauté d'agglomération GrandSoissons Agglomération,97,0,0,3.Rural périurbain,49.332,3.2735,I028100025,Piscine Intercommunale de Villers-Cotterêts,Villers-Cotterêts,CC Retz-en-Valois,15.656,20.304,18.48
02610,Pommiers,02,02 - Aisne,240200477,Communauté d'agglomération GrandSoissons Agglomération,738,7,0,2.Urbain intermédiaire,49.3936,3.2805,I020710003,"Camping ""La Croix du vieux Pont",Berny-Rivière,CC Retz-en-Valois,11.012,12.242,16.3
02706,Septmonts,02,02 - Aisne,240200477,Communauté d'agglomération GrandSoissons Agglomération,571,2,0,3.Rural périurbain,49.3375,3.3641,I028100025,Piscine Intercommunale de Villers-Cotterêts,Villers-Cotterêts,CC Retz-en-Valois,21.804,26.523,28.24
02711,Serches,02,02 - Aisne,240200477,Communauté d'agglomération GrandSoissons Agglomération,277,4,0,3.Rural périurbain,49.3322,3.4492,I020710003,"Camping ""La Croix du vieux Pont",Berny-Rivière,CC Retz-en-Valois,24.536,30.208,33.1
02714,Sermoise,02,02 - Aisne,240200477,Communauté d'agglomération GrandSoissons Agglomération,347,0,0,3.Rural périurbain,49.3717,3.4463,I020710003,"Camping ""La Croix du vieux Pont",Berny-Rivière,CC Retz-en-Valois,23.239,28.36,29.88
02722,Soissons,02,02 - Aisne,240200477,Communauté d'agglomération GrandSoissons Agglomération,28667,95,0,2.Urbain intermédiaire,49.3766,3.3235,I020710003,"Camping ""La Croix du vieux Pont",Berny-Rivière,CC Retz-en-Valois,14.404,18.369,21.05
02770,Vauxbuin,02,02 - Aisne,240200477,Communauté d'agglomération GrandSoissons Agglomération,771,0,0,2.Urbain intermédiaire,49.3577,3.2957,I028100025,Piscine Intercommunale de Villers-Cotterêts,Villers-Cotterêts,CC Retz-en-Valois,18.565,21.734,17.87
02767,Vauxrezis,02,02 - Aisne,240200477,Communauté d'agglomération GrandSoissons Agglomération,325,0,0,3.Rural périurbain,49.4213,3.2747,I020710003,"Camping ""La Croix du vieux Pont",Berny-Rivière,CC Retz-en-Valois,10.671,15.261,20.17
02780,Venizel,02,02 - Aisne,240200477,Communauté d'agglomération GrandSoissons Agglomération,1333,6,0,3.Rural périurbain,49.369,3.395,I020710003,"Camping ""La Croix du vieux Pont",Berny-Rivière,CC Retz-en-Valois,19.642,24.64,25.72
02805,Villeneuve-Saint-Germain,02,02 - Aisne,240200477,Communauté d'agglomération GrandSoissons Agglomération,2585,5,0,2.Urbain intermédiaire,49.3809,3.3595,I020710003,"Camping ""La Croix du vieux Pont",Berny-Rivière,CC Retz-en-Valois,16.872,21.981,23.81
02828,Vregny,02,02 - Aisne,240200477,Communauté d'agglomération GrandSoissons Agglomération,90,0,0,3.Rural périurbain,49.4142,3.4189,I024080034,Le dôme - Centre aquatique & patinoire,Laon,CA du Pays de Laon,23.914,28.027,22.43
02023,Armentières-sur-Ourcq,02,02 - Aisne,200072031,Communauté d'agglomération de la Région de Château-Thierry,98,2,0,4.Rural non périurbain,49.1731,3.3916,I021680004,Complexe Citélium,Château-Thierry,CA de la Région de Château-Thierry,11.743,13.588,17.32
02042,Azy-sur-Marne,02,02 - Aisne,200072031,Communauté d'agglomération de la Région de Château-Thierry,370,1,0,3.Rural périurbain,49.0061,3.3575,I021680004,Complexe Citélium,Château-Thierry,CA de la Région de Château-Thierry,7.25,10.216,17.05
02051,Barzy-sur-Marne,02,02 - Aisne,200072031,Communauté d'agglomération de la Région de Château-Thierry,399,2,0,4.Rural non périurbain,49.09,3.5586,I022090001,Piscine Municipale (type entérée),Condé-en-Brie,CA de la Région de Château-Thierry,9.536,17.754,34.92
02062,Belleau,02,02 - Aisne,200072031,Communauté d'agglomération de la Région de Château-Thierry,133,1,0,3.Rural périurbain,49.0803,3.3036,I021680004,Complexe Citélium,Château-Thierry,CA de la Région de Château-Thierry,6.524,8.665,12.53
02083,Beuvardes,02,02 - Aisne,200072031,Communauté d'agglomération de la Région de Château-Thierry,741,3,0,4.Rural non périurbain,49.1278,3.4884,I021680004,Complexe Citélium,Château-Thierry,CA de la Région de Château-Thierry,9.76,15.291,21.14
02094,Blesmes,02,02 - Aisne,200072031,Communauté d'agglomération de la Région de Château-Thierry,473,2,0,2.Urbain intermédiaire,49.0258,3.4628,I022090001,Piscine Municipale (type entérée),Condé-en-Brie,CA de la Région de Château-Thierry,7.162,9.188,13.66
02098,Bonneil,02,02 - Aisne,200072031,Communauté d'agglomération de la Région de Château-Thierry,376,2,0,4.Rural non périurbain,49.0077,3.3476,I021680004,Complexe Citélium,Château-Thierry,CA de la Région de Château-Thierry,7.363,11.1,17.54
02099,Bonnesvalyn,02,02 - Aisne,200072031,Communauté d'agglomération de la Région de Château-Thierry,207,2,0,4.Rural non périurbain,49.1235,3.3273,I021680004,Complexe Citélium,Château-Thierry,CA de la Région de Château-Thierry,7.765,12.548,18.4
02105,Bouresches,02,02 - Aisne,200072031,Communauté d'agglomération de la Région de Château-Thierry,187,1,0,3.Rural périurbain,49.0665,3.3191,I021680004,Complexe Citélium,Château-Thierry,CA de la Région de Château-Thierry,5.239,9.528,18.0
02114,Brasles,02,02 - Aisne,200072031,Communauté d'agglomération de la Région de Château-Thierry,1711,13,0,2.Urbain intermédiaire,49.0579,3.4195,I021680004,Complexe Citélium,Château-Thierry,CA de la Région de Château-Thierry,2.335,4.185,7.47
02125,Brumetz,02,02 - Aisne,200072031,Communauté d'agglomération de la Région de Château-Thierry,179,0,0,3.Rural périurbain,49.1124,3.1528,I021680004,Complexe Citélium,Château-Thierry,CA de la Région de Château-Thierry,18.05,22.051,38.54
02127,Bruyères-sur-Fère,02,02 - Aisne,200072031,Communauté d'agglomération de la Région de Château-Thierry,195,0,0,4.Rural non périurbain,49.1994,3.445,I021680004,Complexe Citélium,Château-Thierry,CA de la Région de Château-Thierry,15.185,19.596,25.9
02119,Brécy,02,02 - Aisne,200072031,Communauté d'agglomération de la Région de Château-Thierry,317,1,0,4.Rural non périurbain,49.1402,3.4263,I021680004,Complexe Citélium,Château-Thierry,CA de la Région de Château-Thierry,8.483,13.852,18.75
02137,Bussiares,02,02 - Aisne,200072031,Communauté d'agglomération de la Région de Château-Thierry,131,0,0,3.Rural périurbain,49.0749,3.2501,I021680004,Complexe Citélium,Château-Thierry,CA de la Région de Château-Thierry,10.297,14.4,21.32
02085,Bézu-Saint-Germain,02,02 - Aisne,200072031,Communauté d'agglomération de la Région de Château-Thierry,991,5,0,4.Rural non périurbain,49.1045,3.4082,I021680004,Complexe Citélium,Château-Thierry,CA de la Région de Château-Thierry,4.301,6.185,8.32
02146,Celles-lès-Condé,02,02 - Aisne,200072031,Communauté d'agglomération de la Région de Château-Thierry,94,0,0,4.Rural non périurbain,49.0158,3.5703,I022090001,Piscine Municipale (type entérée),Condé-en-Brie,CA de la Région de Château-Thierry,1.683,2.416,4.13
02166,Chartèves,02,02 - Aisne,200072031,Communauté d'agglomération de la Région de Château-Thierry,358,4,0,4.Rural non périurbain,49.0894,3.504,I022090001,Piscine Municipale (type entérée),Condé-en-Brie,CA de la Région de Château-Thierry,10.179,11.653,13.71
02187,Chierry,02,02 - Aisne,200072031,Communauté d'agglomération de la Région de Château-Thierry,1169,9,0,2.Urbain intermédiaire,49.0326,3.4321,I021680004,Complexe Citélium,Château-Thierry,CA de la Région de Château-Thierry,4.902,6.349,13.35
02168,Château-Thierry,02,02 - Aisne,200072031,Communauté d'agglomération de la Région de Château-Thierry,15068,175,3,2.Urbain intermédiaire,49.0556,3.3784,I021680004,Complexe Citélium,Château-Thierry,CA de la Région de Château-Thierry,1.61,2.472,8.38
02185,Chézy-en-Orxois,02,02 - Aisne,200072031,Communauté d'agglomération de la Région de Château-Thierry,377,1,0,3.Rural périurbain,49.1247,3.1565,I028100025,Piscine Intercommunale de Villers-Cotterêts,Villers-Cotterêts,CC Retz-en-Valois,15.892,19.992,31.17
02193,Cierges,02,02 - Aisne,200072031,Communauté d'agglomération de la Région de Château-Thierry,64,0,0,4.Rural non périurbain,49.1659,3.6022,I022090001,Piscine Municipale (type entérée),Condé-en-Brie,CA de la Région de Château-Thierry,18.293,23.663,30.25
02203,Coincy,02,02 - Aisne,200072031,Communauté d'agglomération de la Région de Château-Thierry,1281,5,0,4.Rural non périurbain,49.1548,3.4331,I021680004,Complexe Citélium,Château-Thierry,CA de la Région de Château-Thierry,10.18,14.774,18.09
02209,Condé-en-Brie,02,02 - Aisne,200072031,Communauté d'agglomération de la Région de Château-Thierry,658,0,1,4.Rural non périurbain,48.9999,3.5602,I022090001,Piscine Municipale (type entérée),Condé-en-Brie,CA de la Région de Château-Thierry,0.601,0.901,2.8
02213,Connigis,02,02 - Aisne,200072031,Communauté d'agglomération de la Région de Château-Thierry,318,2,0,4.Rural non périurbain,49.0357,3.532,I022090001,Piscine Municipale (type entérée),Condé-en-Brie,CA de la Région de Château-Thierry,3.888,4.407,6.28
02220,Coulonges-Cohan,02,02 - Aisne,200072031,Communauté d'agglomération de la Région de Château-Thierry,443,4,0,3.Rural périurbain,49.1958,3.6238,I021680004,Complexe Citélium,Château-Thierry,CA de la Région de Château-Thierry,22.146,41.562,34.64
02223,Courboin,02,02 - Aisne,200072031,Communauté d'agglomération de la Région de Château-Thierry,301,1,0,4.Rural non périurbain,48.9956,3.5127,I022090001,Piscine Municipale (type entérée),Condé-en-Brie,CA de la Région de Château-Thierry,3.257,4.604,7.79
02225,Courchamps,02,02 - Aisne,200072031,Communauté d'agglomération de la Région de Château-Thierry,82,0,0,3.Rural périurbain,49.1152,3.261,I021680004,Complexe Citélium,Château-Thierry,CA de la Région de Château-Thierry,10.851,14.999,21.38
02227,Courmont,02,02 - Aisne,200072031,Communauté d'agglomération de la Région de Château-Thierry,123,0,0,4.Rural non périurbain,49.1411,3.5712,I022090001,Piscine Municipale (type entérée),Condé-en-Brie,CA de la Région de Château-Thierry,15.259,20.036,25.6
02228,Courtemont-Varennes,02,02 - Aisne,200072031,Communauté d'agglomération de la Région de Château-Thierry,353,0,0,4.Rural non périurbain,49.0719,3.5414,I022090001,Piscine Municipale (type entérée),Condé-en-Brie,CA de la Région de Château-Thierry,7.589,10.403,11.27
02239,Crézancy,02,02 - Aisne,200072031,Communauté d'agglomération de la Région de Château-Thierry,1193,3,0,4.Rural non périurbain,49.0405,3.5169,I022090001,Piscine Municipale (type entérée),Condé-en-Brie,CA de la Région de Château-Thierry,4.908,5.494,6.65
02458,Dhuys et Morin-en-Brie,02,02 - Aisne,200072031,Communauté d'agglomération de la Région de Château-Thierry,825,4,0,3.Rural périurbain,48.8917,3.5092,I022090001,Piscine Municipale (type entérée),Condé-en-Brie,CA de la Région de Château-Thierry,12.963,17.39,21.44
02271,Dravegny,02,02 - Aisne,200072031,Communauté d'agglomération de la Région de Château-Thierry,132,2,0,3.Rural périurbain,49.2425,3.6395,I021680004,Complexe Citélium,Château-Thierry,CA de la Région de Château-Thierry,26.557,46.093,43.57
02290,Essômes-sur-Marne,02,02 - Aisne,200072031,Communauté d'agglomération de la Région de Château-Thierry,2698,11,0,2.Urbain intermédiaire,49.033,3.3427,I021680004,Complexe Citélium,Château-Thierry,CA de la Région de Château-Thierry,5.206,8.572,15.94
02328,Fossoy,02,02 - Aisne,200072031,Communauté d'agglomération de la Région de Château-Thierry,524,5,0,4.Rural non périurbain,49.0426,3.4821,I022090001,Piscine Municipale (type entérée),Condé-en-Brie,CA de la Région de Château-Thierry,6.833,8.994,11.82
02332,Fresnes-en-Tardenois,02,02 - Aisne,200072031,Communauté d'agglomération de la Région de Château-Thierry,278,1,0,4.Rural non périurbain,49.1448,3.5511,I021680004,Complexe Citélium,Château-Thierry,CA de la Région de Château-Thierry,14.482,19.827,26.04
02305,Fère-en-Tardenois,02,02 - Aisne,200072031,Communauté d'agglomération de la Région de Château-Thierry,2881,3,0,4.Rural non périurbain,49.1833,3.5126,I021680004,Complexe Citélium,Château-Thierry,CA de la Région de Château-Thierry,15.624,20.857,25.11
02339,Gandelu,02,02 - Aisne,200072031,Communauté d'agglomération de la Région de Château-Thierry,691,1,0,3.Rural périurbain,49.0796,3.1782,I021680004,Complexe Citélium,Château-Thierry,CA de la Région de Château-Thierry,15.559,20.097,26.89
02347,Gland,02,02 - Aisne,200072031,Communauté d'agglomération de la Région de Château-Thierry,429,1,0,4.Rural non périurbain,49.059,3.4602,I021680004,Complexe Citélium,Château-Thierry,CA de la Région de Château-Thierry,5.13,9.275,15.41
02351,Goussancourt,02,02 - Aisne,200072031,Communauté d'agglomération de la Région de Château-Thierry,117,1,0,3.Rural périurbain,49.1636,3.6541,I021680004,Complexe Citélium,Château-Thierry,CA de la Région de Château-Thierry,21.929,37.142,29.77
02356,Grisolles,02,02 - Aisne,200072031,Communauté d'agglomération de la Région de Château-Thierry,230,5,0,4.Rural non périurbain,49.1298,3.3718,I021680004,Complexe Citélium,Château-Thierry,CA de la Région de Château-Thierry,7.068,9.429,10.71
02375,Hautevesnes,02,02 - Aisne,200072031,Communauté d'agglomération de la Région de Château-Thierry,162,0,0,3.Rural périurbain,49.114,3.2317,I021680004,Complexe Citélium,Château-Thierry,CA de la Région de Château-Thierry,12.7,16.305,25.08
02389,Jaulgonne,02,02 - Aisne,200072031,Communauté d'agglomération de la Région de Château-Thierry,669,2,0,4.Rural non périurbain,49.0884,3.5315,I022090001,Piscine Municipale (type entérée),Condé-en-Brie,CA de la Région de Château-Thierry,9.515,12.368,14.38
02241,La Croix-sur-Ourcq,02,02 - Aisne,200072031,Communauté d'agglomération de la Région de Château-Thierry,89,0,0,4.Rural non périurbain,49.1589,3.3502,I021680004,Complexe Citélium,Château-Thierry,CA de la Région de Château-Thierry,10.589,14.02,19.31
02411,Latilly,02,02 - Aisne,200072031,Communauté d'agglomération de la Région de Château-Thierry,199,1,0,4.Rural non périurbain,49.154,3.3123,I021680004,Complexe Citélium,Château-Thierry,CA de la Région de Château-Thierry,11.196,15.046,16.49
02164,Le Charmel,02,02 - Aisne,200072031,Communauté d'agglomération de la Région de Château-Thierry,324,1,0,4.Rural non périurbain,49.1106,3.5446,I022090001,Piscine Municipale (type entérée),Condé-en-Brie,CA de la Région de Château-Thierry,11.849,15.477,17.62
02428,Licy-Clignon,02,02 - Aisne,200072031,Communauté d'agglomération de la Région de Château-Thierry,70,1,0,3.Rural périurbain,49.1026,3.2654,I021680004,Complexe Citélium,Château-Thierry,CA de la Région de Château-Thierry,9.945,13.345,19.2
02442,Loupeigne,02,02 - Aisne,200072031,Communauté d'agglomération de la Région de Château-Thierry,87,0,0,4.Rural non périurbain,49.2437,3.5251,I021680004,Complexe Citélium,Château-Thierry,CA de la Région de Château-Thierry,21.886,28.677,34.67
02462,Mareuil-en-Dôle,02,02 - Aisne,200072031,Communauté d'agglomération de la Région de Château-Thierry,223,0,0,4.Rural non périurbain,49.2446,3.5627,I021680004,Complexe Citélium,Château-Thierry,CA de la Région de Château-Thierry,23.318,29.478,35.34
02524,Mont-Saint-Père,02,02 - Aisne,200072031,Communauté d'agglomération de la Région de Château-Thierry,689,7,0,4.Rural non périurbain,49.0809,3.4776,I022090001,Piscine Municipale (type entérée),Condé-en-Brie,CA de la Région de Château-Thierry,10.233,12.45,13.91
02509,Monthiers,02,02 - Aisne,200072031,Communauté d'agglomération de la Région de Château-Thierry,155,1,0,4.Rural non périurbain,49.1087,3.2952,I021680004,Complexe Citélium,Château-Thierry,CA de la Région de Château-Thierry,8.346,10.525,19.78
02510,Monthurel,02,02 - Aisne,200072031,Communauté d'agglomération de la Région de Château-Thierry,137,3,0,4.Rural non périurbain,49.0286,3.5505,I022090001,Piscine Municipale (type entérée),Condé-en-Brie,CA de la Région de Château-Thierry,2.728,4.362,8.31
02512,Montigny-l'Allier,02,02 - Aisne,200072031,Communauté d'agglomération de la Région de Château-Thierry,271,0,0,3.Rural périurbain,49.1245,3.1053,I028100025,Piscine Intercommunale de Villers-Cotterêts,Villers-Cotterêts,CC Retz-en-Valois,15.161,19.087,22.95
02515,Montigny-lès-Condé,02,02 - Aisne,200072031,Communauté d'agglomération de la Région de Château-Thierry,50,0,0,3.Rural périurbain,48.982,3.5665,I022090001,Piscine Municipale (type entérée),Condé-en-Brie,CA de la Région de Château-Thierry,2.607,3.729,5.48
02518,Montlevon,02,02 - Aisne,200072031,Communauté d'agglomération de la Région de Château-Thierry,289,5,0,3.Rural périurbain,48.9577,3.5178,I022090001,Piscine Municipale (type entérée),Condé-en-Brie,CA de la Région de Château-Thierry,5.859,6.89,10.8
02484,Mézy-Moulins,02,02 - Aisne,200072031,Communauté d'agglomération de la Région de Château-Thierry,551,2,0,4.Rural non périurbain,49.0634,3.5125,I022090001,Piscine Municipale (type entérée),Condé-en-Brie,CA de la Région de Château-Thierry,7.279,9.042,12.84
02538,Nanteuil-Notre-Dame,02,02 - Aisne,200072031,Communauté d'agglomération de la Région de Château-Thierry,83,0,0,4.Rural non périurbain,49.1912,3.4105,I021680004,Complexe Citélium,Château-Thierry,CA de la Région de Château-Thierry,13.829,17.518,21.09
02540,Nesles-la-Montagne,02,02 - Aisne,200072031,Communauté d'agglomération de la Région de Château-Thierry,1196,16,0,2.Urbain intermédiaire,49.0008,3.4486,I021680004,Complexe Citélium,Château-Thierry,CA de la Région de Château-Thierry,8.522,10.253,15.73
02543,Neuilly-Saint-Front,02,02 - Aisne,200072031,Communauté d'agglomération de la Région de Château-Thierry,1980,80,0,4.Rural non périurbain,49.165,3.2666,I021680004,Complexe Citélium,Château-Thierry,CA de la Région de Château-Thierry,14.125,19.041,21.46
02554,Nogentel,02,02 - Aisne,200072031,Communauté d'agglomération de la Région de Château-Thierry,1106,8,0,2.Urbain intermédiaire,49.0152,3.4042,I021680004,Complexe Citélium,Château-Thierry,CA de la Région de Château-Thierry,5.894,6.992,14.85
02590,Pargny-la-Dhuys,02,02 - Aisne,200072031,Communauté d'agglomération de la Région de Château-Thierry,172,0,0,4.Rural non périurbain,48.9582,3.562,I022090001,Piscine Municipale (type entérée),Condé-en-Brie,CA de la Région de Château-Thierry,5.146,8.221,14.29
02595,Passy-sur-Marne,02,02 - Aisne,200072031,Communauté d'agglomération de la Région de Château-Thierry,139,0,0,4.Rural non périurbain,49.068,3.5747,I022090001,Piscine Municipale (type entérée),Condé-en-Brie,CA de la Région de Château-Thierry,7.225,16.842,24.05
02622,Priez,02,02 - Aisne,200072031,Communauté d'agglomération de la Région de Château-Thierry,58,0,0,3.Rural périurbain,49.1308,3.2616,I021680004,Complexe Citélium,Château-Thierry,CA de la Région de Château-Thierry,11.76,16.895,25.5
02645,Reuilly-Sauvigny,02,02 - Aisne,200072031,Communauté d'agglomération de la Région de Château-Thierry,213,0,0,4.Rural non périurbain,49.0525,3.5616,I022090001,Piscine Municipale (type entérée),Condé-en-Brie,CA de la Région de Château-Thierry,5.382,13.485,14.12
02649,Rocourt-Saint-Martin,02,02 - Aisne,200072031,Communauté d'agglomération de la Région de Château-Thierry,305,2,0,4.Rural non périurbain,49.1427,3.3915,I021680004,Complexe Citélium,Château-Thierry,CA de la Région de Château-Thierry,8.363,10.626,13.34
02655,Ronchères,02,02 - Aisne,200072031,Communauté d'agglomération de la Région de Château-Thierry,152,0,0,4.Rural non périurbain,49.1389,3.6031,I022090001,Piscine Municipale (type entérée),Condé-en-Brie,CA de la Région de Château-Thierry,15.369,21.367,27.79
02662,Rozet-Saint-Albin,02,02 - Aisne,200072031,Communauté d'agglomération de la Région de Château-Thierry,333,0,0,4.Rural non périurbain,49.1979,3.2944,I028100025,Piscine Intercommunale de Villers-Cotterêts,Villers-Cotterêts,CC Retz-en-Valois,16.541,20.814,28.92
02664,Rozoy-Bellevalle,02,02 - Aisne,200072031,Communauté d'agglomération de la Région de Château-Thierry,120,0,0,3.Rural périurbain,48.9269,3.4482,I022090001,Piscine Municipale (type entérée),Condé-en-Brie,CA de la Région de Château-Thierry,11.628,14.594,20.06
02677,Saint-Eugène,02,02 - Aisne,200072031,Communauté d'agglomération de la Région de Château-Thierry,234,0,0,4.Rural non périurbain,49.0155,3.5173,I022090001,Piscine Municipale (type entérée),Condé-en-Brie,CA de la Région de Château-Thierry,3.043,3.983,6.39
02679,Saint-Gengoulph,02,02 - Aisne,200072031,Communauté d'agglomération de la Région de Château-Thierry,153,2,0,3.Rural périurbain,49.1154,3.2129,I021680004,Complexe Citélium,Château-Thierry,CA de la Région de Château-Thierry,14.02,19.142,25.55
02699,Saponay,02,02 - Aisne,200072031,Communauté d'agglomération de la Région de Château-Thierry,270,0,0,4.Rural non périurbain,49.2117,3.4896,I021680004,Complexe Citélium,Château-Thierry,CA de la Région de Château-Thierry,17.566,25.029,29.08
02712,Sergy,02,02 - Aisne,200072031,Communauté d'agglomération de la Région de Château-Thierry,137,2,0,4.Rural non périurbain,49.182,3.568,I022090001,Piscine Municipale (type entérée),Condé-en-Brie,CA de la Région de Château-Thierry,19.784,24.705,29.71
02713,Seringes-et-Nesles,02,02 - Aisne,200072031,Communauté d'agglomération de la Région de Château-Thierry,268,0,0,4.Rural non périurbain,49.2115,3.5606,I021680004,Complexe Citélium,Château-Thierry,CA de la Région de Château-Thierry,20.215,26.816,40.21
02724,Sommelans,02,02 - Aisne,200072031,Communauté d'agglomération de la Région de Château-Thierry,58,0,0,4.Rural non périurbain,49.1355,3.2903,I021680004,Complexe Citélium,Château-Thierry,CA de la Région de Château-Thierry,10.532,15.059,25.54
02744,Torcy-en-Valois,02,02 - Aisne,200072031,Communauté d'agglomération de la Région de Château-Thierry,77,1,0,3.Rural périurbain,49.0836,3.2739,I021680004,Complexe Citélium,Château-Thierry,CA de la Région de Château-Thierry,8.715,10.8,14.86
02748,Trélou-sur-Marne,02,02 - Aisne,200072031,Communauté d'agglomération de la Région de Château-Thierry,948,1,0,4.Rural non périurbain,49.0903,3.6055,I022090001,Piscine Municipale (type entérée),Condé-en-Brie,CA de la Région de Château-Thierry,10.241,16.587,20.9
02053,Vallées en Champagne,02,02 - Aisne,200072031,Communauté d'agglomération de la Région de Château-Thierry,590,0,0,4.Rural non périurbain,49.0009,3.6203,I022090001,Piscine Municipale (type entérée),Condé-en-Brie,CA de la Région de Château-Thierry,4.753,7.398,10.64
02781,Verdilly,02,02 - Aisne,200072031,Communauté d'agglomération de la Région de Château-Thierry,455,7,0,4.Rural non périurbain,49.0746,3.4231,I021680004,Complexe Citélium,Château-Thierry,CA de la Région de Château-Thierry,2.469,6.332,11.08
02796,Vichel-Nanteuil,02,02 - Aisne,200072031,Communauté d'agglomération de la Région de Château-Thierry,93,0,0,4.Rural non périurbain,49.1821,3.2965,I028100025,Piscine Intercommunale de Villers-Cotterêts,Villers-Cotterêts,CC Retz-en-Valois,17.487,21.059,25.99
02800,Viffort,02,02 - Aisne,200072031,Communauté d'agglomération de la Région de Château-Thierry,314,5,0,3.Rural périurbain,48.9555,3.4663,I022090001,Piscine Municipale (type entérée),Condé-en-Brie,CA de la Région de Château-Thierry,8.464,11.681,18.34
02806,Villeneuve-sur-Fère,02,02 - Aisne,200072031,Communauté d'agglomération de la Région de Château-Thierry,285,3,0,4.Rural non périurbain,49.171,3.4775,I021680004,Complexe Citélium,Château-Thierry,CA de la Région de Château-Thierry,13.119,20.287,27.07
02809,Villers-Agron-Aiguizy,02,02 - Aisne,200072031,Communauté d'agglomération de la Région de Château-Thierry,70,0,0,3.Rural périurbain,49.1609,3.7143,I021680004,Complexe Citélium,Château-Thierry,CA de la Région de Château-Thierry,25.721,33.982,25.95
02816,Villers-sur-Fère,02,02 - Aisne,200072031,Communauté d'agglomération de la Région de Château-Thierry,517,0,0,4.Rural non périurbain,49.1679,3.5302,I021680004,Complexe Citélium,Château-Thierry,CA de la Région de Château-Thierry,15.076,20.616,27.71
02794,Vézilly,02,02 - Aisne,200072031,Communauté d'agglomération de la Région de Château-Thierry,184,0,0,3.Rural périurbain,49.1877,3.6817,I021680004,Complexe Citélium,Château-Thierry,CA de la Région de Château-Thierry,25.022,36.614,29.3
02279,Épaux-Bézu,02,02 - Aisne,200072031,Communauté d'agglomération de la Région de Château-Thierry,540,2,0,4.Rural non périurbain,49.1022,3.3563,I021680004,Complexe Citélium,Château-Thierry,CA de la Région de Château-Thierry,4.613,8.355,16.08
02280,Épieds,02,02 - Aisne,200072031,Communauté d'agglomération de la Région de Château-Thierry,411,1,0,4.Rural non périurbain,49.1023,3.4579,I021680004,Complexe Citélium,Château-Thierry,CA de la Région de Château-Thierry,6.222,10.585,15.0
02292,Étampes-sur-Marne,02,02 - Aisne,200072031,Communauté d'agglomération de la Région de Château-Thierry,1331,7,0,2.Urbain intermédiaire,49.0319,3.4175,I021680004,Complexe Citélium,Château-Thierry,CA de la Région de Château-Thierry,4.404,5.759,10.51
02297,Étrépilly,02,02 - Aisne,200072031,Communauté d'agglomération de la Région de Château-Thierry,125,5,0,4.Rural non périurbain,49.0825,3.3515,I021680004,Complexe Citélium,Château-Thierry,CA de la Région de Château-Thierry,3.326,6.508,11.84
02024,Arrancy,02,02 - Aisne,200043495,Communauté d'agglomération du Pays de Laon,45,0,0,3.Rural périurbain,49.4985,3.7647,I024080034,Le dôme - Centre aquatique & patinoire,Laon,CA du Pays de Laon,11.142,13.824,16.62
02028,Athies-sous-Laon,02,02 - Aisne,200043495,Communauté d'agglomération du Pays de Laon,2600,14,0,3.Rural périurbain,49.5754,3.6905,I024080034,Le dôme - Centre aquatique & patinoire,Laon,CA du Pays de Laon,2.934,4.93,10.84
02037,Aulnois-sous-Laon,02,02 - Aisne,200043495,Communauté d'agglomération du Pays de Laon,1366,5,2,3.Rural périurbain,49.6213,3.6111,I020370001,Complexe sportif,Aulnois-sous-Laon,CA du Pays de Laon,1.629,2.556,3.89
02080,Besny-et-Loizy,02,02 - Aisne,200043495,Communauté d'agglomération du Pays de Laon,314,1,0,3.Rural périurbain,49.5914,3.5778,I020370001,Complexe sportif,Aulnois-sous-Laon,CA du Pays de Laon,3.103,5.146,7.96
02088,Bièvres,02,02 - Aisne,200043495,Communauté d'agglomération du Pays de Laon,80,0,0,3.Rural périurbain,49.4923,3.7141,I024080034,Le dôme - Centre aquatique & patinoire,Laon,CA du Pays de Laon,9.436,16.763,18.28
02128,Bruyères-et-Montbérault,02,02 - Aisne,200043495,Communauté d'agglomération du Pays de Laon,1419,14,0,3.Rural périurbain,49.5184,3.6698,I024080034,Le dôme - Centre aquatique & patinoire,Laon,CA du Pays de Laon,5.551,8.458,12.42
02132,Bucy-lès-Cerny,02,02 - Aisne,200043495,Communauté d'agglomération du Pays de Laon,188,0,0,3.Rural périurbain,49.5799,3.493,I020370001,Complexe sportif,Aulnois-sous-Laon,CA du Pays de Laon,9.202,13.209,17.28
02150,Cerny-en-Laonnois,02,02 - Aisne,200043495,Communauté d'agglomération du Pays de Laon,63,0,0,4.Rural non périurbain,49.4492,3.6803,I024080034,Le dôme - Centre aquatique & patinoire,Laon,CA du Pays de Laon,13.253,19.674,31.09
02151,Cerny-lès-Bucy,02,02 - Aisne,200043495,Communauté d'agglomération du Pays de Laon,113,0,0,3.Rural périurbain,49.5791,3.5466,I020370001,Complexe sportif,Aulnois-sous-Laon,CA du Pays de Laon,5.735,7.564,9.68
02153,Cessières-Suzy,02,02 - Aisne,200043495,Communauté d'agglomération du Pays de Laon,796,5,0,3.Rural périurbain,49.5575,3.4817,I020370001,Complexe sportif,Aulnois-sous-Laon,CA du Pays de Laon,10.983,15.4,18.89
02157,Chambry,02,02 - Aisne,200043495,Communauté d'agglomération du Pays de Laon,831,4,0,2.Urbain intermédiaire,49.5985,3.6719,I024080034,Le dôme - Centre aquatique & patinoire,Laon,CA du Pays de Laon,3.791,4.591,5.54
02158,Chamouille,02,02 - Aisne,200043495,Communauté d'agglomération du Pays de Laon,270,7,0,3.Rural périurbain,49.4723,3.671,I024080034,Le dôme - Centre aquatique & patinoire,Laon,CA du Pays de Laon,10.615,14.468,19.23
02191,Chivy-lès-Étouvelles,02,02 - Aisne,200043495,Communauté d'agglomération du Pays de Laon,488,2,0,3.Rural périurbain,49.5334,3.5838,I024080034,Le dôme - Centre aquatique & patinoire,Laon,CA du Pays de Laon,6.172,8.717,10.33
02177,Chérêt,02,02 - Aisne,200043495,Communauté d'agglomération du Pays de Laon,146,1,0,3.Rural périurbain,49.5147,3.6878,I024080034,Le dôme - Centre aquatique & patinoire,Laon,CA du Pays de Laon,6.36,9.721,14.18
02196,Clacy-et-Thierret,02,02 - Aisne,200043495,Communauté d'agglomération du Pays de Laon,294,2,0,3.Rural périurbain,49.5546,3.5651,I024080034,Le dôme - Centre aquatique & patinoire,Laon,CA du Pays de Laon,6.413,10.295,12.59
02205,Colligis-Crandelain,02,02 - Aisne,200043495,Communauté d'agglomération du Pays de Laon,212,2,0,3.Rural périurbain,49.4696,3.628,I024080034,Le dôme - Centre aquatique & patinoire,Laon,CA du Pays de Laon,10.963,17.109,22.92
02238,Crépy,02,02 - Aisne,200043495,Communauté d'agglomération du Pays de Laon,1807,2,0,3.Rural périurbain,49.6089,3.5088,I020370001,Complexe sportif,Aulnois-sous-Laon,CA du Pays de Laon,7.567,8.769,12.84
02282,Eppes,02,02 - Aisne,200043495,Communauté d'agglomération du Pays de Laon,438,2,0,3.Rural périurbain,49.5509,3.7397,I024080034,Le dôme - Centre aquatique & patinoire,Laon,CA du Pays de Laon,6.576,7.304,9.2
02309,Festieux,02,02 - Aisne,200043495,Communauté d'agglomération du Pays de Laon,707,2,0,3.Rural périurbain,49.5255,3.7609,I024080034,Le dôme - Centre aquatique & patinoire,Laon,CA du Pays de Laon,9.112,10.507,19.17
02407,Laniscourt,02,02 - Aisne,200043495,Communauté d'agglomération du Pays de Laon,213,5,0,3.Rural périurbain,49.5461,3.5336,I020370001,Complexe sportif,Aulnois-sous-Laon,CA du Pays de Laon,8.882,12.711,19.09
02408,Laon,02,02 - Aisne,200043495,Communauté d'agglomération du Pays de Laon,24066,160,3,2.Urbain intermédiaire,49.5711,3.613,I024080034,Le dôme - Centre aquatique & patinoire,Laon,CA du Pays de Laon,2.846,3.505,6.62
02413,Laval-en-Laonnois,02,02 - Aisne,200043495,Communauté d'agglomération du Pays de Laon,248,1,0,3.Rural périurbain,49.503,3.5862,I024080034,Le dôme - Centre aquatique & patinoire,Laon,CA du Pays de Laon,8.549,12.101,12.38
02429,Lierval,02,02 - Aisne,200043495,Communauté d'agglomération du Pays de Laon,120,0,0,3.Rural périurbain,49.488,3.6218,I024080034,Le dôme - Centre aquatique & patinoire,Laon,CA du Pays de Laon,9.045,12.592,23.05
02471,Martigny-Courpierre,02,02 - Aisne,200043495,Communauté d'agglomération du Pays de Laon,135,1,0,3.Rural périurbain,49.4919,3.6872,I024080034,Le dôme - Centre aquatique & patinoire,Laon,CA du Pays de Laon,8.725,13.403,20.86
02489,Molinchart,02,02 - Aisne,200043495,Communauté d'agglomération du Pays de Laon,355,2,0,3.Rural périurbain,49.5614,3.5407,I020370001,Complexe sportif,Aulnois-sous-Laon,CA du Pays de Laon,7.292,10.008,12.09
02497,Mons-en-Laonnois,02,02 - Aisne,200043495,Communauté d'agglomération du Pays de Laon,1148,7,0,3.Rural périurbain,49.5372,3.5531,I024080034,Le dôme - Centre aquatique & patinoire,Laon,CA du Pays de Laon,7.861,10.261,12.44
02501,Montchâlons,02,02 - Aisne,200043495,Communauté d'agglomération du Pays de Laon,74,0,0,3.Rural périurbain,49.5137,3.7228,I024080034,Le dôme - Centre aquatique & patinoire,Laon,CA du Pays de Laon,7.823,13.005,17.93
02508,Monthenault,02,02 - Aisne,200043495,Communauté d'agglomération du Pays de Laon,145,1,0,3.Rural périurbain,49.49,3.6555,I024080034,Le dôme - Centre aquatique & patinoire,Laon,CA du Pays de Laon,8.561,13.389,18.77
02561,Nouvion-le-Vineux,02,02 - Aisne,200043495,Communauté d'agglomération du Pays de Laon,143,3,0,3.Rural périurbain,49.5108,3.6052,I024080034,Le dôme - Centre aquatique & patinoire,Laon,CA du Pays de Laon,7.097,11.019,13.4
02573,Orgeval,02,02 - Aisne,200043495,Communauté d'agglomération du Pays de Laon,55,2,0,3.Rural périurbain,49.5047,3.7011,I024080034,Le dôme - Centre aquatique & patinoire,Laon,CA du Pays de Laon,7.778,11.486,16.41
02587,Parfondru,02,02 - Aisne,200043495,Communauté d'agglomération du Pays de Laon,351,5,0,3.Rural périurbain,49.54,3.7062,I024080034,Le dôme - Centre aquatique & patinoire,Laon,CA du Pays de Laon,4.929,6.133,10.38
02621,Presles-et-Thierny,02,02 - Aisne,200043495,Communauté d'agglomération du Pays de Laon,400,6,0,3.Rural périurbain,49.513,3.6231,I024080034,Le dôme - Centre aquatique & patinoire,Laon,CA du Pays de Laon,6.351,8.759,15.74
02697,Samoussy,02,02 - Aisne,200043495,Communauté d'agglomération du Pays de Laon,387,1,0,3.Rural périurbain,49.5906,3.7432,I024080034,Le dôme - Centre aquatique & patinoire,Laon,CA du Pays de Laon,7.085,7.983,11.04
02765,Vaucelles-et-Beffecourt,02,02 - Aisne,200043495,Communauté d'agglomération du Pays de Laon,233,6,0,3.Rural périurbain,49.5215,3.5584,I024080034,Le dôme - Centre aquatique & patinoire,Laon,CA du Pays de Laon,8.432,13.299,15.25
02791,Veslud,02,02 - Aisne,200043495,Communauté d'agglomération du Pays de Laon,269,1,0,3.Rural périurbain,49.5402,3.7301,I024080034,Le dôme - Centre aquatique & patinoire,Laon,CA du Pays de Laon,6.374,8.874,13.74
02821,Vivaise,02,02 - Aisne,200043495,Communauté d'agglomération du Pays de Laon,662,3,0,3.Rural périurbain,49.6238,3.5634,I020370001,Complexe sportif,Aulnois-sous-Laon,CA du Pays de Laon,4.094,4.824,7.04
02824,Vorges,02,02 - Aisne,200043495,Communauté d'agglomération du Pays de Laon,383,2,0,3.Rural périurbain,49.5182,3.6527,I024080034,Le dôme - Centre aquatique & patinoire,Laon,CA du Pays de Laon,5.422,8.762,12.54
02294,Étouvelles,02,02 - Aisne,200043495,Communauté d'agglomération du Pays de Laon,207,1,0,3.Rural périurbain,49.5171,3.5807,I024080034,Le dôme - Centre aquatique & patinoire,Laon,CA du Pays de Laon,7.561,12.094,11.46
02019,Annois,02,02 - Aisne,200071892,Communauté d'agglomération du Saint-Quentinois,352,1,0,4.Rural non périurbain,49.7122,3.1761,I804100008,Piscine Aquari'Ham,Ham,CC de l'Est de la Somme,8.569,10.465,13.29
02025,Artemps,02,02 - Aisne,200071892,Communauté d'agglomération du Saint-Quentinois,363,2,0,3.Rural périurbain,49.7623,3.196,I804100008,Piscine Aquari'Ham,Ham,CC de l'Est de la Somme,8.67,10.037,16.76
02032,Aubigny-aux-Kaisnes,02,02 - Aisne,200071892,Communauté d'agglomération du Saint-Quentinois,239,0,0,4.Rural non périurbain,49.7724,3.1167,I804100008,Piscine Aquari'Ham,Ham,CC de l'Est de la Somme,3.567,4.736,6.21
02117,Bray-Saint-Christophe,02,02 - Aisne,200071892,Communauté d'agglomération du Saint-Quentinois,65,0,0,3.Rural périurbain,49.7738,3.142,I804100008,Piscine Aquari'Ham,Ham,CC de l'Est de la Somme,5.226,6.785,8.58
02142,Castres,02,02 - Aisne,200071892,Communauté d'agglomération du Saint-Quentinois,247,3,0,3.Rural périurbain,49.803,3.2576,I023400001,Piscine,Gauchy,CA du Saint-Quentinois,3.935,4.77,7.3
02199,Clastres,02,02 - Aisne,200071892,Communauté d'agglomération du Saint-Quentinois,590,0,0,3.Rural périurbain,49.7491,3.228,I023400001,Piscine,Gauchy,CA du Saint-Quentinois,10.168,16.624,16.0
02214,Contescourt,02,02 - Aisne,200071892,Communauté d'agglomération du Saint-Quentinois,61,0,0,3.Rural périurbain,49.7921,3.2343,I023400001,Piscine,Gauchy,CA du Saint-Quentinois,5.947,7.204,10.95
02246,Cugny,02,02 - Aisne,200071892,Communauté d'agglomération du Saint-Quentinois,605,5,0,4.Rural non périurbain,49.7097,3.1518,I804100008,Piscine Aquari'Ham,Ham,CC de l'Est de la Somme,7.349,9.286,12.29
02257,Dallon,02,02 - Aisne,200071892,Communauté d'agglomération du Saint-Quentinois,431,5,0,3.Rural périurbain,49.8249,3.2327,I026910035,Base Urbaine de Loisirs de Saint Quentin,Saint-Quentin,CA du Saint-Quentinois,4.121,5.074,8.16
02273,Dury,02,02 - Aisne,200071892,Communauté d'agglomération du Saint-Quentinois,194,0,0,3.Rural périurbain,49.7516,3.1322,I804100008,Piscine Aquari'Ham,Ham,CC de l'Est de la Somme,4.048,4.8,6.51
02288,Essigny-le-Petit,02,02 - Aisne,200071892,Communauté d'agglomération du Saint-Quentinois,351,1,0,3.Rural périurbain,49.8985,3.3686,I026910012,Piscine Jean Bouin,Saint-Quentin,CA du Saint-Quentinois,6.573,7.518,10.27
02303,Fayet,02,02 - Aisne,200071892,Communauté d'agglomération du Saint-Quentinois,711,10,0,2.Urbain intermédiaire,49.871,3.2533,I026910035,Base Urbaine de Loisirs de Saint Quentin,Saint-Quentin,CA du Saint-Quentinois,4.215,5.12,8.6
02310,Fieulaine,02,02 - Aisne,200071892,Communauté d'agglomération du Saint-Quentinois,249,0,0,3.Rural périurbain,49.8974,3.445,I023340006,Piscine,Fresnoy-le-Grand,CC du Pays du Vermandois,7.623,11.1,13.01
02315,Flavy-le-Martel,02,02 - Aisne,200071892,Communauté d'agglomération du Saint-Quentinois,1698,10,0,3.Rural périurbain,49.7086,3.1921,I804100008,Piscine Aquari'Ham,Ham,CC de l'Est de la Somme,9.756,12.127,15.77
02319,Fonsomme,02,02 - Aisne,200071892,Communauté d'agglomération du Saint-Quentinois,517,3,0,3.Rural périurbain,49.8998,3.3961,I026910012,Piscine Jean Bouin,Saint-Quentin,CA du Saint-Quentinois,8.085,9.521,12.69
02322,Fontaine-Notre-Dame,02,02 - Aisne,200071892,Communauté d'agglomération du Saint-Quentinois,379,3,0,3.Rural périurbain,49.881,3.424,I026910012,Piscine Jean Bouin,Saint-Quentin,CA du Saint-Quentinois,8.786,12.427,15.92
02320,Fontaine-lès-Clercs,02,02 - Aisne,200071892,Communauté d'agglomération du Saint-Quentinois,230,0,0,3.Rural périurbain,49.8091,3.2127,I023400001,Piscine,Gauchy,CA du Saint-Quentinois,6.143,8.373,15.13
02340,Gauchy,02,02 - Aisne,200071892,Communauté d'agglomération du Saint-Quentinois,5197,18,2,2.Urbain intermédiaire,49.8233,3.2846,I023400001,Piscine,Gauchy,CA du Saint-Quentinois,0.973,1.253,3.53
02359,Grugies,02,02 - Aisne,200071892,Communauté d'agglomération du Saint-Quentinois,1248,3,0,2.Urbain intermédiaire,49.8106,3.2787,I023400001,Piscine,Gauchy,CA du Saint-Quentinois,2.431,3.804,6.65
02367,Happencourt,02,02 - Aisne,200071892,Communauté d'agglomération du Saint-Quentinois,176,0,0,3.Rural périurbain,49.7814,3.1838,I804100008,Piscine Aquari'Ham,Ham,CC de l'Est de la Somme,8.32,10.867,15.01
02371,Harly,02,02 - Aisne,200071892,Communauté d'agglomération du Saint-Quentinois,1563,8,0,2.Urbain intermédiaire,49.8404,3.3347,I026910012,Piscine Jean Bouin,Saint-Quentin,CA du Saint-Quentinois,2.348,3.802,5.44
02383,Homblières,02,02 - Aisne,200071892,Communauté d'agglomération du Saint-Quentinois,1425,5,0,3.Rural périurbain,49.8569,3.3709,I026910012,Piscine Jean Bouin,Saint-Quentin,CA du Saint-Quentinois,4.449,7.505,11.48
02397,Jussy,02,02 - Aisne,200071892,Communauté d'agglomération du Saint-Quentinois,1186,0,0,3.Rural périurbain,49.7168,3.2357,I021730004,Espace Aquatique Oasis,Chauny,CA Chauny-Tergnier-La Fère,10.977,12.557,16.12
02420,Lesdins,02,02 - Aisne,200071892,Communauté d'agglomération du Saint-Quentinois,808,5,0,3.Rural périurbain,49.9036,3.3122,I026910012,Piscine Jean Bouin,Saint-Quentin,CA du Saint-Quentinois,5.571,6.595,9.09
02459,Marcy,02,02 - Aisne,200071892,Communauté d'agglomération du Saint-Quentinois,152,0,0,3.Rural périurbain,49.8518,3.4159,I026910012,Piscine Jean Bouin,Saint-Quentin,CA du Saint-Quentinois,7.662,9.978,16.34
02481,Mesnil-Saint-Laurent,02,02 - Aisne,200071892,Communauté d'agglomération du Saint-Quentinois,450,1,0,3.Rural périurbain,49.8312,3.3657,I023400001,Piscine,Gauchy,CA du Saint-Quentinois,5.329,6.674,9.57
02504,Montescourt-Lizerolles,02,02 - Aisne,200071892,Communauté d'agglomération du Saint-Quentinois,1619,6,0,3.Rural périurbain,49.7362,3.2581,I023400001,Piscine,Gauchy,CA du Saint-Quentinois,10.795,13.511,11.93
02525,Morcourt,02,02 - Aisne,200071892,Communauté d'agglomération du Saint-Quentinois,545,6,0,2.Urbain intermédiaire,49.8783,3.3378,I026910012,Piscine Jean Bouin,Saint-Quentin,CA du Saint-Quentinois,3.439,4.02,6.13
02549,Neuville-Saint-Amand,02,02 - Aisne,200071892,Communauté d'agglomération du Saint-Quentinois,857,3,0,3.Rural périurbain,49.8201,3.3395,I023400001,Piscine,Gauchy,CA du Saint-Quentinois,3.652,5.549,7.41
02570,Ollezy,02,02 - Aisne,200071892,Communauté d'agglomération du Saint-Quentinois,169,0,0,4.Rural non périurbain,49.7287,3.1465,I804100008,Piscine Aquari'Ham,Ham,CC de l'Est de la Somme,5.798,7.657,12.09
02571,Omissy,02,02 - Aisne,200071892,Communauté d'agglomération du Saint-Quentinois,679,2,0,2.Urbain intermédiaire,49.88,3.2969,I026910012,Piscine Jean Bouin,Saint-Quentin,CA du Saint-Quentinois,3.069,4.109,5.5
02637,Remaucourt,02,02 - Aisne,200071892,Communauté d'agglomération du Saint-Quentinois,278,0,0,3.Rural périurbain,49.8979,3.3528,I026910012,Piscine Jean Bouin,Saint-Quentin,CA du Saint-Quentinois,5.844,6.754,10.92
02659,Rouvroy,02,02 - Aisne,200071892,Communauté d'agglomération du Saint-Quentinois,507,6,0,2.Urbain intermédiaire,49.8583,3.3315,I026910012,Piscine Jean Bouin,Saint-Quentin,CA du Saint-Quentinois,1.693,2.158,4.62
02691,Saint-Quentin,02,02 - Aisne,200071892,Communauté d'agglomération du Saint-Quentinois,52995,285,8,2.Urbain intermédiaire,49.8475,3.279,I026910035,Base Urbaine de Loisirs de Saint Quentin,Saint-Quentin,CA du Saint-Quentinois,1.025,1.588,3.19
02694,Saint-Simon,02,02 - Aisne,200071892,Communauté d'agglomération du Saint-Quentinois,598,1,0,3.Rural périurbain,49.7457,3.1818,I804100008,Piscine Aquari'Ham,Ham,CC de l'Est de la Somme,7.659,10.182,13.05
02710,Seraucourt-le-Grand,02,02 - Aisne,200071892,Communauté d'agglomération du Saint-Quentinois,714,1,0,3.Rural périurbain,49.7823,3.216,I023400001,Piscine,Gauchy,CA du Saint-Quentinois,7.645,8.664,11.5
02726,Sommette-Eaucourt,02,02 - Aisne,200071892,Communauté d'agglomération du Saint-Quentinois,177,1,0,4.Rural non périurbain,49.7268,3.1178,I804100008,Piscine Aquari'Ham,Ham,CC de l'Est de la Somme,4.267,5.701,12.23
02752,Tugny-et-Pont,02,02 - Aisne,200071892,Communauté d'agglomération du Saint-Quentinois,283,1,0,3.Rural périurbain,49.7676,3.1642,I804100008,Piscine Aquari'Ham,Ham,CC de l'Est de la Somme,6.514,7.995,10.15
02815,Villers-Saint-Christophe,02,02 - Aisne,200071892,Communauté d'agglomération du Saint-Quentinois,419,2,0,3.Rural périurbain,49.7799,3.092,I804100008,Piscine Aquari'Ham,Ham,CC de l'Est de la Somme,3.097,3.864,5.72
02018,Anizy-le-Grand,02,02 - Aisne,200071769,Communauté de communes Picardie des Châteaux,2510,6,0,3.Rural périurbain,49.5159,3.4426,I024080034,Le dôme - Centre aquatique & patinoire,Laon,CA du Pays de Laon,16.137,22.573,24.69
02049,Barisis-aux-Bois,02,02 - Aisne,200071769,Communauté de communes Picardie des Châteaux,746,6,0,4.Rural non périurbain,49.5814,3.332,I020590004,Piscine Lucien Lahaye,Beautor,CA Chauny-Tergnier-La Fère,7.005,11.224,14.53
02052,Bassoles-Aulers,02,02 - Aisne,200071769,Communauté de communes Picardie des Châteaux,130,0,0,3.Rural périurbain,49.5328,3.3828,I020590004,Piscine Lucien Lahaye,Beautor,CA Chauny-Tergnier-La Fère,12.676,18.108,28.44
02078,Besmé,02,02 - Aisne,200071769,Communauté de communes Picardie des Châteaux,166,0,0,4.Rural non périurbain,49.5348,3.1657,I021730004,Espace Aquatique Oasis,Chauny,CA Chauny-Tergnier-La Fère,9.975,13.863,17.53
02093,Blérancourt,02,02 - Aisne,200071769,Communauté de communes Picardie des Châteaux,1212,4,0,4.Rural non périurbain,49.51,3.149,I020710003,"Camping ""La Croix du vieux Pont",Berny-Rivière,CC Retz-en-Valois,11.76,14.784,17.88
02107,Bourguignon-sous-Coucy,02,02 - Aisne,200071769,Communauté de communes Picardie des Châteaux,104,1,0,4.Rural non périurbain,49.5417,3.1579,I021730004,Espace Aquatique Oasis,Chauny,CA Chauny-Tergnier-La Fère,9.476,13.224,16.55
02108,Bourguignon-sous-Montbavin,02,02 - Aisne,200071769,Communauté de communes Picardie des Châteaux,146,0,0,3.Rural périurbain,49.528,3.5389,I024080034,Le dôme - Centre aquatique & patinoire,Laon,CA du Pays de Laon,9.235,11.872,14.87
02111,Brancourt-en-Laonnois,02,02 - Aisne,200071769,Communauté de communes Picardie des Châteaux,710,0,0,4.Rural non périurbain,49.517,3.4128,I020590004,Piscine Lucien Lahaye,Beautor,CA Chauny-Tergnier-La Fère,14.969,19.485,25.53
02140,Camelin,02,02 - Aisne,200071769,Communauté de communes Picardie des Châteaux,436,3,0,4.Rural non périurbain,49.5244,3.1243,I604710011,PISCINE MUNICIPALE PAUL BOUTEFEU,Noyon,CC du Pays Noyonnais,10.966,12.327,18.9
02155,Chaillevois,02,02 - Aisne,200071769,Communauté de communes Picardie des Châteaux,197,1,0,3.Rural périurbain,49.5087,3.5233,I024080034,Le dôme - Centre aquatique & patinoire,Laon,CA du Pays de Laon,11.32,15.633,15.67
02159,Champs,02,02 - Aisne,200071769,Communauté de communes Picardie des Châteaux,311,0,0,4.Rural non périurbain,49.538,3.257,I021730004,Espace Aquatique Oasis,Chauny,CA Chauny-Tergnier-La Fère,9.586,11.07,15.74
02219,Coucy-la-Ville,02,02 - Aisne,200071769,Communauté de communes Picardie des Châteaux,195,2,0,4.Rural non périurbain,49.5414,3.3413,I021730004,Espace Aquatique Oasis,Chauny,CA Chauny-Tergnier-La Fère,12.695,16.301,20.9
02217,Coucy-le-Château-Auffrique,02,02 - Aisne,200071769,Communauté de communes Picardie des Châteaux,989,3,0,4.Rural non périurbain,49.514,3.3178,I021730004,Espace Aquatique Oasis,Chauny,CA Chauny-Tergnier-La Fère,13.95,15.518,18.93
02236,Crécy-au-Mont,02,02 - Aisne,200071769,Communauté de communes Picardie des Châteaux,323,1,0,3.Rural périurbain,49.4846,3.3141,I021730004,Espace Aquatique Oasis,Chauny,CA Chauny-Tergnier-La Fère,16.669,20.431,27.93
02318,Folembray,02,02 - Aisne,200071769,Communauté de communes Picardie des Châteaux,1362,6,0,4.Rural non périurbain,49.55,3.2896,I021730004,Espace Aquatique Oasis,Chauny,CA Chauny-Tergnier-La Fère,9.496,11.586,17.99
02333,Fresnes-sous-Coucy,02,02 - Aisne,200071769,Communauté de communes Picardie des Châteaux,160,0,0,4.Rural non périurbain,49.5523,3.3678,I020590004,Piscine Lucien Lahaye,Beautor,CA Chauny-Tergnier-La Fère,10.337,14.372,18.73
02363,Guny,02,02 - Aisne,200071769,Communauté de communes Picardie des Châteaux,363,1,0,4.Rural non périurbain,49.5117,3.2641,I021730004,Espace Aquatique Oasis,Chauny,CA Chauny-Tergnier-La Fère,12.523,15.539,20.84
02395,Jumencourt,02,02 - Aisne,200071769,Communauté de communes Picardie des Châteaux,126,1,0,3.Rural périurbain,49.5151,3.3484,I021730004,Espace Aquatique Oasis,Chauny,CA Chauny-Tergnier-La Fère,15.171,20.181,26.39
02406,Landricourt,02,02 - Aisne,200071769,Communauté de communes Picardie des Châteaux,129,0,0,3.Rural périurbain,49.5104,3.3717,I021730004,Espace Aquatique Oasis,Chauny,CA Chauny-Tergnier-La Fère,16.683,20.802,24.34
02423,Leuilly-sous-Coucy,02,02 - Aisne,200071769,Communauté de communes Picardie des Châteaux,445,0,0,3.Rural périurbain,49.4755,3.3501,I021730004,Espace Aquatique Oasis,Chauny,CA Chauny-Tergnier-La Fère,18.815,20.775,25.96
02478,Merlieux-et-Fouquerolles,02,02 - Aisne,200071769,Communauté de communes Picardie des Châteaux,255,0,0,3.Rural périurbain,49.5166,3.499,I024080034,Le dôme - Centre aquatique & patinoire,Laon,CA du Pays de Laon,12.375,17.852,18.34
02499,Montbavin,02,02 - Aisne,200071769,Communauté de communes Picardie des Châteaux,40,2,0,3.Rural périurbain,49.5301,3.5135,I024080034,Le dôme - Centre aquatique & patinoire,Laon,CA du Pays de Laon,10.796,14.913,19.71
02602,Pinon,02,02 - Aisne,200071769,Communauté de communes Picardie des Châteaux,1650,3,0,4.Rural non périurbain,49.4873,3.4646,I024080034,Le dôme - Centre aquatique & patinoire,Laon,CA du Pays de Laon,16.165,24.721,22.97
02616,Pont-Saint-Mard,02,02 - Aisne,200071769,Communauté de communes Picardie des Châteaux,185,0,0,3.Rural périurbain,49.4967,3.2785,I021730004,Espace Aquatique Oasis,Chauny,CA Chauny-Tergnier-La Fère,14.433,16.477,21.29
02619,Prémontré,02,02 - Aisne,200071769,Communauté de communes Picardie des Châteaux,596,0,0,4.Rural non périurbain,49.5493,3.4153,I020590004,Piscine Lucien Lahaye,Beautor,CA Chauny-Tergnier-La Fère,11.722,15.742,21.32
02632,Quincy-Basse,02,02 - Aisne,200071769,Communauté de communes Picardie des Châteaux,54,0,0,4.Rural non périurbain,49.5091,3.3824,I020590004,Piscine Lucien Lahaye,Beautor,CA Chauny-Tergnier-La Fère,15.252,21.062,30.27
02661,Royaucourt-et-Chailvet,02,02 - Aisne,200071769,Communauté de communes Picardie des Châteaux,228,2,0,3.Rural périurbain,49.5122,3.539,I024080034,Le dôme - Centre aquatique & patinoire,Laon,CA du Pays de Laon,10.173,14.772,15.69
02671,Saint-Aubin,02,02 - Aisne,200071769,Communauté de communes Picardie des Châteaux,279,1,0,4.Rural non périurbain,49.5085,3.1891,I020710003,"Camping ""La Croix du vieux Pont",Berny-Rivière,CC Retz-en-Valois,12.291,15.701,20.54
02686,Saint-Paul-aux-Bois,02,02 - Aisne,200071769,Communauté de communes Picardie des Châteaux,360,2,0,4.Rural non périurbain,49.5463,3.2004,I021730004,Espace Aquatique Oasis,Chauny,CA Chauny-Tergnier-La Fère,8.156,10.471,14.3
02704,Selens,02,02 - Aisne,200071769,Communauté de communes Picardie des Châteaux,207,1,0,4.Rural non périurbain,49.4975,3.2018,I020710003,"Camping ""La Croix du vieux Pont",Berny-Rivière,CC Retz-en-Valois,11.541,15.28,24.32
02707,Septvaux,02,02 - Aisne,200071769,Communauté de communes Picardie des Châteaux,179,3,0,4.Rural non périurbain,49.5704,3.3856,I020590004,Piscine Lucien Lahaye,Beautor,CA Chauny-Tergnier-La Fère,8.718,11.741,16.14
02750,Trosly-Loire,02,02 - Aisne,200071769,Communauté de communes Picardie des Châteaux,551,0,0,4.Rural non périurbain,49.5167,3.2298,I021730004,Espace Aquatique Oasis,Chauny,CA Chauny-Tergnier-La Fère,11.469,13.693,20.12
02755,Urcel,02,02 - Aisne,200071769,Communauté de communes Picardie des Châteaux,539,6,0,3.Rural périurbain,49.4936,3.5575,I024080034,Le dôme - Centre aquatique & patinoire,Laon,CA du Pays de Laon,10.63,13.86,13.72
02768,Vauxaillon,02,02 - Aisne,200071769,Communauté de communes Picardie des Châteaux,504,1,0,3.Rural périurbain,49.4767,3.4084,I024080034,Le dôme - Centre aquatique & patinoire,Laon,CA du Pays de Laon,20.243,28.927,28.65
02786,Verneuil-sous-Coucy,02,02 - Aisne,200071769,Communauté de communes Picardie des Châteaux,136,0,0,4.Rural non périurbain,49.5446,3.3188,I021730004,Espace Aquatique Oasis,Chauny,CA Chauny-Tergnier-La Fère,11.297,15.086,20.86
02834,Wissignicourt,02,02 - Aisne,200071769,Communauté de communes Picardie des Châteaux,154,0,0,3.Rural périurbain,49.5288,3.4451,I020590004,Piscine Lucien Lahaye,Beautor,CA Chauny-Tergnier-La Fère,14.744,19.187,24.11
02011,Ambleny,02,02 - Aisne,200071991,Communauté de communes Retz-en-Valois,1203,11,0,3.Rural périurbain,49.3741,3.1681,I020710003,"Camping ""La Croix du vieux Pont",Berny-Rivière,CC Retz-en-Valois,4.438,9.301,13.4
02015,Ancienville,02,02 - Aisne,200071991,Communauté de communes Retz-en-Valois,78,0,0,3.Rural périurbain,49.2196,3.2065,I028100025,Piscine Intercommunale de Villers-Cotterêts,Villers-Cotterêts,CC Retz-en-Valois,9.746,11.889,14.25
02034,Audignicourt,02,02 - Aisne,200071991,Communauté de communes Retz-en-Valois,110,0,0,4.Rural non périurbain,49.4779,3.1268,I020710003,"Camping ""La Croix du vieux Pont",Berny-Rivière,CC Retz-en-Valois,8.106,11.636,15.76
02071,Berny-Rivière,02,02 - Aisne,200071991,Communauté de communes Retz-en-Valois,633,8,3,3.Rural périurbain,49.4118,3.152,I020710003,"Camping ""La Croix du vieux Pont",Berny-Rivière,CC Retz-en-Valois,1.805,2.686,6.71
02087,Bieuxy,02,02 - Aisne,200071991,Communauté de communes Retz-en-Valois,34,0,0,3.Rural périurbain,49.4469,3.2687,I020710003,"Camping ""La Croix du vieux Pont",Berny-Rivière,CC Retz-en-Valois,11.104,15.726,18.94
02192,Chouy,02,02 - Aisne,200071991,Communauté de communes Retz-en-Valois,371,0,0,3.Rural périurbain,49.2154,3.2433,I028100025,Piscine Intercommunale de Villers-Cotterêts,Villers-Cotterêts,CC Retz-en-Valois,12.357,14.665,17.27
02216,Corcy,02,02 - Aisne,200071991,Communauté de communes Retz-en-Valois,318,6,0,3.Rural périurbain,49.2528,3.1957,I028100025,Piscine Intercommunale de Villers-Cotterêts,Villers-Cotterêts,CC Retz-en-Valois,7.886,9.705,11.82
02232,Coyolles,02,02 - Aisne,200071991,Communauté de communes Retz-en-Valois,366,1,0,3.Rural périurbain,49.216,3.021,I028100025,Piscine Intercommunale de Villers-Cotterêts,Villers-Cotterêts,CC Retz-en-Valois,6.909,10.246,9.79
02254,Cutry,02,02 - Aisne,200071991,Communauté de communes Retz-en-Valois,126,1,0,3.Rural périurbain,49.345,3.1907,I028100025,Piscine Intercommunale de Villers-Cotterêts,Villers-Cotterêts,CC Retz-en-Valois,12.017,19.022,19.69
02201,Cœuvres-et-Valsery,02,02 - Aisne,200071991,Communauté de communes Retz-en-Valois,466,4,0,4.Rural non périurbain,49.324,3.1496,I028100025,Piscine Intercommunale de Villers-Cotterêts,Villers-Cotterêts,CC Retz-en-Valois,8.383,12.922,15.47
02258,Dammard,02,02 - Aisne,200071991,Communauté de communes Retz-en-Valois,375,1,0,3.Rural périurbain,49.146,3.1723,I028100025,Piscine Intercommunale de Villers-Cotterêts,Villers-Cotterêts,CC Retz-en-Valois,14.125,16.438,21.66
02259,Dampleux,02,02 - Aisne,200071991,Communauté de communes Retz-en-Valois,378,0,0,3.Rural périurbain,49.2408,3.1471,I028100025,Piscine Intercommunale de Villers-Cotterêts,Villers-Cotterêts,CC Retz-en-Valois,4.832,6.708,9.04
02267,Dommiers,02,02 - Aisne,200071991,Communauté de communes Retz-en-Valois,306,0,0,3.Rural périurbain,49.3314,3.2165,I028100025,Piscine Intercommunale de Villers-Cotterêts,Villers-Cotterêts,CC Retz-en-Valois,12.236,18.21,15.05
02302,Faverolles,02,02 - Aisne,200071991,Communauté de communes Retz-en-Valois,351,3,0,3.Rural périurbain,49.2255,3.1827,I028100025,Piscine Intercommunale de Villers-Cotterêts,Villers-Cotterêts,CC Retz-en-Valois,7.914,10.107,13.65
02316,Fleury,02,02 - Aisne,200071991,Communauté de communes Retz-en-Valois,126,0,0,3.Rural périurbain,49.2679,3.1553,I028100025,Piscine Intercommunale de Villers-Cotterêts,Villers-Cotterêts,CC Retz-en-Valois,4.98,14.226,17.42
02326,Fontenoy,02,02 - Aisne,200071991,Communauté de communes Retz-en-Valois,470,5,0,3.Rural périurbain,49.4108,3.1936,I020710003,"Camping ""La Croix du vieux Pont",Berny-Rivière,CC Retz-en-Valois,4.694,5.159,7.14
02368,Haramont,02,02 - Aisne,200071991,Communauté de communes Retz-en-Valois,558,0,0,3.Rural périurbain,49.2862,3.0219,I028100025,Piscine Intercommunale de Villers-Cotterêts,Villers-Cotterêts,CC Retz-en-Valois,5.569,7.924,11.36
02307,La Ferté-Milon,02,02 - Aisne,200071991,Communauté de communes Retz-en-Valois,2040,2,0,3.Rural périurbain,49.1729,3.1441,I028100025,Piscine Intercommunale de Villers-Cotterêts,Villers-Cotterêts,CC Retz-en-Valois,10.553,12.704,16.61
02410,Largny-sur-Automne,02,02 - Aisne,200071991,Communauté de communes Retz-en-Valois,240,1,0,3.Rural périurbain,49.2627,3.0559,I028100025,Piscine Intercommunale de Villers-Cotterêts,Villers-Cotterêts,CC Retz-en-Valois,2.319,4.889,7.67
02415,Laversine,02,02 - Aisne,200071991,Communauté de communes Retz-en-Valois,156,1,0,3.Rural périurbain,49.3541,3.1475,I020710003,"Camping ""La Croix du vieux Pont",Berny-Rivière,CC Retz-en-Valois,5.812,8.388,11.81
02438,Longpont,02,02 - Aisne,200071991,Communauté de communes Retz-en-Valois,237,1,0,4.Rural non périurbain,49.2857,3.2202,I028100025,Piscine Intercommunale de Villers-Cotterêts,Villers-Cotterêts,CC Retz-en-Valois,10.021,14.839,16.32
02441,Louâtre,02,02 - Aisne,200071991,Communauté de communes Retz-en-Valois,189,1,0,3.Rural périurbain,49.2566,3.2429,I028100025,Piscine Intercommunale de Villers-Cotterêts,Villers-Cotterêts,CC Retz-en-Valois,11.274,13.691,17.02
02449,Macogny,02,02 - Aisne,200071991,Communauté de communes Retz-en-Valois,61,0,0,3.Rural périurbain,49.157,3.2186,I028100025,Piscine Intercommunale de Villers-Cotterêts,Villers-Cotterêts,CC Retz-en-Valois,14.919,19.251,23.48
02467,Marizy-Saint-Mard,02,02 - Aisne,200071991,Communauté de communes Retz-en-Valois,49,0,0,4.Rural non périurbain,49.1823,3.227,I028100025,Piscine Intercommunale de Villers-Cotterêts,Villers-Cotterêts,CC Retz-en-Valois,13.332,18.407,25.66
02466,Marizy-Sainte-Geneviève,02,02 - Aisne,200071991,Communauté de communes Retz-en-Valois,127,0,0,3.Rural périurbain,49.181,3.1971,I028100025,Piscine Intercommunale de Villers-Cotterêts,Villers-Cotterêts,CC Retz-en-Valois,11.876,19.235,24.23
02496,Monnes,02,02 - Aisne,200071991,Communauté de communes Retz-en-Valois,94,0,0,3.Rural périurbain,49.1473,3.2282,I028100025,Piscine Intercommunale de Villers-Cotterêts,Villers-Cotterêts,CC Retz-en-Valois,16.196,20.762,27.01
02506,Montgobert,02,02 - Aisne,200071991,Communauté de communes Retz-en-Valois,202,0,0,3.Rural périurbain,49.2892,3.1764,I028100025,Piscine Intercommunale de Villers-Cotterêts,Villers-Cotterêts,CC Retz-en-Valois,7.193,15.819,12.38
02514,Montigny-Lengrain,02,02 - Aisne,200071991,Communauté de communes Retz-en-Valois,684,6,0,4.Rural non périurbain,49.3741,3.0975,I020710003,"Camping ""La Croix du vieux Pont",Berny-Rivière,CC Retz-en-Valois,4.138,6.628,10.42
02527,Morsain,02,02 - Aisne,200071991,Communauté de communes Retz-en-Valois,467,4,0,3.Rural périurbain,49.462,3.1896,I020710003,"Camping ""La Croix du vieux Pont",Berny-Rivière,CC Retz-en-Valois,7.69,11.654,23.2
02528,Mortefontaine,02,02 - Aisne,200071991,Communauté de communes Retz-en-Valois,215,1,0,3.Rural périurbain,49.3366,3.08,I028100025,Piscine Intercommunale de Villers-Cotterêts,Villers-Cotterêts,CC Retz-en-Valois,8.496,14.335,16.65
02557,Noroy-sur-Ourcq,02,02 - Aisne,200071991,Communauté de communes Retz-en-Valois,126,0,0,3.Rural périurbain,49.2031,3.207,I028100025,Piscine Intercommunale de Villers-Cotterêts,Villers-Cotterêts,CC Retz-en-Valois,10.753,14.976,19.1
02562,Nouvron-Vingré,02,02 - Aisne,200071991,Communauté de communes Retz-en-Valois,197,0,0,3.Rural périurbain,49.4349,3.1899,I020710003,"Camping ""La Croix du vieux Pont",Berny-Rivière,CC Retz-en-Valois,5.499,8.67,14.53
02568,Oigny-en-Valois,02,02 - Aisne,200071991,Communauté de communes Retz-en-Valois,175,2,0,3.Rural périurbain,49.213,3.1287,I028100025,Piscine Intercommunale de Villers-Cotterêts,Villers-Cotterêts,CC Retz-en-Valois,6.05,8.301,11.66
02594,Passy-en-Valois,02,02 - Aisne,200071991,Communauté de communes Retz-en-Valois,125,1,0,3.Rural périurbain,49.165,3.1814,I028100025,Piscine Intercommunale de Villers-Cotterêts,Villers-Cotterêts,CC Retz-en-Valois,12.601,16.126,19.74
02598,Pernant,02,02 - Aisne,200071991,Communauté de communes Retz-en-Valois,683,9,0,3.Rural périurbain,49.3745,3.2336,I020710003,"Camping ""La Croix du vieux Pont",Berny-Rivière,CC Retz-en-Valois,8.274,12.453,15.38
02628,Puiseux-en-Retz,02,02 - Aisne,200071991,Communauté de communes Retz-en-Valois,221,3,0,3.Rural périurbain,49.2939,3.1357,I028100025,Piscine Intercommunale de Villers-Cotterêts,Villers-Cotterêts,CC Retz-en-Valois,5.105,8.084,11.34
02643,Ressons-le-Long,02,02 - Aisne,200071991,Communauté de communes Retz-en-Valois,780,5,0,3.Rural périurbain,49.3829,3.1518,I020710003,"Camping ""La Croix du vieux Pont",Berny-Rivière,CC Retz-en-Valois,2.948,6.309,10.91
02644,Retheuil,02,02 - Aisne,200071991,Communauté de communes Retz-en-Valois,348,1,0,3.Rural périurbain,49.3186,3.001,I028100025,Piscine Intercommunale de Villers-Cotterêts,Villers-Cotterêts,CC Retz-en-Valois,9.024,11.625,13.35
02667,Saconin-et-Breuil,02,02 - Aisne,200071991,Communauté de communes Retz-en-Valois,197,0,0,3.Rural périurbain,49.3509,3.2459,I028100025,Piscine Intercommunale de Villers-Cotterêts,Villers-Cotterêts,CC Retz-en-Valois,15.265,22.071,20.5
02672,Saint-Bandry,02,02 - Aisne,200071991,Communauté de communes Retz-en-Valois,240,1,0,3.Rural périurbain,49.3643,3.1471,I020710003,"Camping ""La Croix du vieux Pont",Berny-Rivière,CC Retz-en-Valois,4.707,8.364,15.81
02673,Saint-Christophe-à-Berry,02,02 - Aisne,200071991,Communauté de communes Retz-en-Valois,443,2,0,4.Rural non périurbain,49.4296,3.1302,I020710003,"Camping ""La Croix du vieux Pont",Berny-Rivière,CC Retz-en-Valois,2.734,4.239,6.17
02687,Saint-Pierre-Aigle,02,02 - Aisne,200071991,Communauté de communes Retz-en-Valois,332,2,0,3.Rural périurbain,49.3137,3.1992,I028100025,Piscine Intercommunale de Villers-Cotterêts,Villers-Cotterêts,CC Retz-en-Valois,10.032,14.291,12.91
02718,Silly-la-Poterie,02,02 - Aisne,200071991,Communauté de communes Retz-en-Valois,114,0,0,3.Rural périurbain,49.197,3.1517,I028100025,Piscine Intercommunale de Villers-Cotterêts,Villers-Cotterêts,CC Retz-en-Valois,8.441,13.766,18.8
02729,Soucy,02,02 - Aisne,200071991,Communauté de communes Retz-en-Valois,77,0,0,3.Rural périurbain,49.3229,3.1229,I028100025,Piscine Intercommunale de Villers-Cotterêts,Villers-Cotterêts,CC Retz-en-Valois,7.41,9.979,11.04
02734,Taillefontaine,02,02 - Aisne,200071991,Communauté de communes Retz-en-Valois,262,1,0,3.Rural périurbain,49.3108,3.0502,I028100025,Piscine Intercommunale de Villers-Cotterêts,Villers-Cotterêts,CC Retz-en-Valois,6.232,7.619,7.84
02736,Tartiers,02,02 - Aisne,200071991,Communauté de communes Retz-en-Valois,165,1,0,3.Rural périurbain,49.4368,3.2332,I020710003,"Camping ""La Croix du vieux Pont",Berny-Rivière,CC Retz-en-Valois,8.303,11.285,14.41
02749,Troësnes,02,02 - Aisne,200071991,Communauté de communes Retz-en-Valois,211,0,0,3.Rural périurbain,49.1984,3.1773,I028100025,Piscine Intercommunale de Villers-Cotterêts,Villers-Cotterêts,CC Retz-en-Valois,9.478,14.088,19.75
02762,Vassens,02,02 - Aisne,200071991,Communauté de communes Retz-en-Valois,171,0,0,3.Rural périurbain,49.4745,3.1556,I020710003,"Camping ""La Croix du vieux Pont",Berny-Rivière,CC Retz-en-Valois,7.956,11.526,16.03
02795,Vic-sur-Aisne,02,02 - Aisne,200071991,Communauté de communes Retz-en-Valois,1610,12,0,4.Rural non périurbain,49.4125,3.1108,I020710003,"Camping ""La Croix du vieux Pont",Berny-Rivière,CC Retz-en-Valois,1.578,2.329,5.84
02810,Villers-Cotterêts,02,02 - Aisne,200071991,Communauté de communes Retz-en-Valois,10376,31,2,2.Urbain intermédiaire,49.2197,3.1025,I028100025,Piscine Intercommunale de Villers-Cotterêts,Villers-Cotterêts,CC Retz-en-Valois,4.647,5.625,8.14
02812,Villers-Hélon,02,02 - Aisne,200071991,Communauté de communes Retz-en-Valois,194,1,0,4.Rural non périurbain,49.2649,3.2681,I028100025,Piscine Intercommunale de Villers-Cotterêts,Villers-Cotterêts,CC Retz-en-Valois,13.104,17.787,18.04
02822,Vivières,02,02 - Aisne,200071991,Communauté de communes Retz-en-Valois,409,2,0,3.Rural périurbain,49.3093,3.0877,I028100025,Piscine Intercommunale de Villers-Cotterêts,Villers-Cotterêts,CC Retz-en-Valois,5.443,10.139,17.81
02793,Vézaponin,02,02 - Aisne,200071991,Communauté de communes Retz-en-Valois,114,4,0,3.Rural périurbain,49.4666,3.2235,I020710003,"Camping ""La Croix du vieux Pont",Berny-Rivière,CC Retz-en-Valois,9.657,13.553,15.73
02277,Épagny,02,02 - Aisne,200071991,Communauté de communes Retz-en-Valois,339,1,0,3.Rural périurbain,49.4729,3.2565,I020710003,"Camping ""La Croix du vieux Pont",Berny-Rivière,CC Retz-en-Valois,11.896,15.272,18.07
02006,Aisonville-et-Bernoville,02,02 - Aisne,200071983,Communauté de communes Thiérache Sambre et Oise,257,0,0,4.Rural non périurbain,49.9313,3.5121,I023340006,Piscine,Fresnoy-le-Grand,CC du Pays du Vermandois,6.649,9.362,12.87
02035,Audigny,02,02 - Aisne,200071983,Communauté de communes Thiérache Sambre et Oise,282,0,0,4.Rural non périurbain,49.8651,3.6314,I023610002,Centre aquatique AQUOISIA,Guise,CC Thiérache Sambre et Oise,4.708,5.664,8.31
02070,Bernot,02,02 - Aisne,200071983,Communauté de communes Thiérache Sambre et Oise,434,3,0,3.Rural périurbain,49.8827,3.4827,I023610002,Centre aquatique AQUOISIA,Guise,CC Thiérache Sambre et Oise,12.063,16.407,31.72
02188,Chigny,02,02 - Aisne,200071983,Communauté de communes Thiérache Sambre et Oise,141,0,0,4.Rural non périurbain,49.9291,3.7728,I023610002,Centre aquatique AQUOISIA,Guise,CC Thiérache Sambre et Oise,9.353,13.382,15.46
02244,Crupilly,02,02 - Aisne,200071983,Communauté de communes Thiérache Sambre et Oise,64,0,0,4.Rural non périurbain,49.9299,3.7555,I023610002,Centre aquatique AQUOISIA,Guise,CC Thiérache Sambre et Oise,8.196,10.111,11.58
02313,Flavigny-le-Grand-et-Beaurain,02,02 - Aisne,200071983,Communauté de communes Thiérache Sambre et Oise,438,0,0,4.Rural non périurbain,49.8868,3.6741,I023610002,Centre aquatique AQUOISIA,Guise,CC Thiérache Sambre et Oise,2.899,6.354,9.95
02783,Grand-Verly,02,02 - Aisne,200071983,Communauté de communes Thiérache Sambre et Oise,134,0,0,4.Rural non périurbain,49.9446,3.5814,I023610002,Centre aquatique AQUOISIA,Guise,CC Thiérache Sambre et Oise,6.351,10.697,16.63
02358,Grougis,02,02 - Aisne,200071983,Communauté de communes Thiérache Sambre et Oise,310,0,0,4.Rural non périurbain,49.9501,3.5281,I023340006,Piscine,Fresnoy-le-Grand,CC du Pays du Vermandois,6.806,10.57,16.33
02361,Guise,02,02 - Aisne,200071983,Communauté de communes Thiérache Sambre et Oise,4510,0,1,4.Rural non périurbain,49.8973,3.6229,I023610002,Centre aquatique AQUOISIA,Guise,CC Thiérache Sambre et Oise,1.997,2.763,7.05
02366,Hannapes,02,02 - Aisne,200071983,Communauté de communes Thiérache Sambre et Oise,327,0,0,4.Rural non périurbain,49.9762,3.6163,I023610002,Centre aquatique AQUOISIA,Guise,CC Thiérache Sambre et Oise,8.088,11.18,15.56
02376,Hauteville,02,02 - Aisne,200071983,Communauté de communes Thiérache Sambre et Oise,184,1,0,3.Rural périurbain,49.888,3.525,I023610002,Centre aquatique AQUOISIA,Guise,CC Thiérache Sambre et Oise,8.977,13.484,20.3
02386,Iron,02,02 - Aisne,200071983,Communauté de communes Thiérache Sambre et Oise,219,0,0,4.Rural non périurbain,49.9517,3.6656,I023610002,Centre aquatique AQUOISIA,Guise,CC Thiérache Sambre et Oise,5.228,7.146,13.44
02760,La Vallée-Mulâtre,02,02 - Aisne,200071983,Communauté de communes Thiérache Sambre et Oise,147,0,0,4.Rural non périurbain,50.0259,3.561,I591360007,Duo Le Cateau,Le Cateau-Cambrésis,CA du Caudrésis et du Catésis,8.001,9.805,14.82
02414,Lavaqueresse,02,02 - Aisne,200071983,Communauté de communes Thiérache Sambre et Oise,202,0,0,4.Rural non périurbain,49.9453,3.7163,I023610002,Centre aquatique AQUOISIA,Guise,CC Thiérache Sambre et Oise,6.59,8.81,11.54
02422,Lesquielles-Saint-Germain,02,02 - Aisne,200071983,Communauté de communes Thiérache Sambre et Oise,776,0,0,4.Rural non périurbain,49.9312,3.6277,I023610002,Centre aquatique AQUOISIA,Guise,CC Thiérache Sambre et Oise,3.106,5.383,10.51
02450,Macquigny,02,02 - Aisne,200071983,Communauté de communes Thiérache Sambre et Oise,356,0,0,4.Rural non périurbain,49.8714,3.569,I023610002,Centre aquatique AQUOISIA,Guise,CC Thiérache Sambre et Oise,6.804,7.33,9.83
02455,Malzy,02,02 - Aisne,200071983,Communauté de communes Thiérache Sambre et Oise,181,0,0,4.Rural non périurbain,49.921,3.7317,I023610002,Centre aquatique AQUOISIA,Guise,CC Thiérache Sambre et Oise,6.277,12.781,21.28
02469,Marly-Gomont,02,02 - Aisne,200071983,Communauté de communes Thiérache Sambre et Oise,484,0,0,4.Rural non périurbain,49.8894,3.7856,I023610002,Centre aquatique AQUOISIA,Guise,CC Thiérache Sambre et Oise,10.095,15.627,21.24
02476,Mennevret,02,02 - Aisne,200071983,Communauté de communes Thiérache Sambre et Oise,654,0,0,4.Rural non périurbain,49.9925,3.5568,I023340006,Piscine,Fresnoy-le-Grand,CC du Pays du Vermandois,9.129,12.817,18.16
02488,Molain,02,02 - Aisne,200071983,Communauté de communes Thiérache Sambre et Oise,160,0,0,4.Rural non périurbain,50.032,3.53,I591360007,Duo Le Cateau,Le Cateau-Cambrésis,CA du Caudrésis et du Catésis,7.051,7.974,12.18
02494,Monceau-sur-Oise,02,02 - Aisne,200071983,Communauté de communes Thiérache Sambre et Oise,130,0,0,4.Rural non périurbain,49.9099,3.6979,I023610002,Centre aquatique AQUOISIA,Guise,CC Thiérache Sambre et Oise,3.661,8.447,13.14
02563,Noyales,02,02 - Aisne,200071983,Communauté de communes Thiérache Sambre et Oise,142,0,0,4.Rural non périurbain,49.9056,3.5367,I023610002,Centre aquatique AQUOISIA,Guise,CC Thiérache Sambre et Oise,7.906,10.882,15.97
02569,Oisy,02,02 - Aisne,200071983,Communauté de communes Thiérache Sambre et Oise,459,2,0,4.Rural non périurbain,50.0226,3.6502,I591360007,Duo Le Cateau,Le Cateau-Cambrésis,CA du Caudrésis et du Catésis,11.695,16.361,21.1
02784,Petit-Verly,02,02 - Aisne,200071983,Communauté de communes Thiérache Sambre et Oise,156,0,0,4.Rural non périurbain,49.9609,3.5646,I023340006,Piscine,Fresnoy-le-Grand,CC du Pays du Vermandois,9.206,15.013,20.83
02624,Proisy,02,02 - Aisne,200071983,Communauté de communes Thiérache Sambre et Oise,275,0,0,4.Rural non périurbain,49.8891,3.7548,I023610002,Centre aquatique AQUOISIA,Guise,CC Thiérache Sambre et Oise,7.946,13.081,18.34
02625,Proix,02,02 - Aisne,200071983,Communauté de communes Thiérache Sambre et Oise,144,0,0,4.Rural non périurbain,49.902,3.5769,I023610002,Centre aquatique AQUOISIA,Guise,CC Thiérache Sambre et Oise,5.049,7.152,12.59
02647,Ribeauville,02,02 - Aisne,200071983,Communauté de communes Thiérache Sambre et Oise,77,0,0,4.Rural non périurbain,50.037,3.5903,I591360007,Duo Le Cateau,Le Cateau-Cambrésis,CA du Caudrésis et du Catésis,7.714,10.069,13.77
02654,Romery,02,02 - Aisne,200071983,Communauté de communes Thiérache Sambre et Oise,83,0,0,4.Rural non périurbain,49.8899,3.7362,I023610002,Centre aquatique AQUOISIA,Guise,CC Thiérache Sambre et Oise,6.635,12.523,17.29
02683,Saint-Martin-Rivière,02,02 - Aisne,200071983,Communauté de communes Thiérache Sambre et Oise,115,0,0,4.Rural non périurbain,50.0438,3.5541,I591360007,Duo Le Cateau,Le Cateau-Cambrésis,CA du Caudrésis et du Catésis,5.951,7.689,12.75
02753,Tupigny,02,02 - Aisne,200071983,Communauté de communes Thiérache Sambre et Oise,335,0,0,4.Rural non périurbain,49.9775,3.5983,I023610002,Centre aquatique AQUOISIA,Guise,CC Thiérache Sambre et Oise,8.661,14.106,31.1
02757,Vadencourt,02,02 - Aisne,200071983,Communauté de communes Thiérache Sambre et Oise,511,1,0,4.Rural non périurbain,49.9248,3.5774,I023610002,Centre aquatique AQUOISIA,Guise,CC Thiérache Sambre et Oise,5.401,7.891,12.05
02769,Vaux-Andigny,02,02 - Aisne,200071983,Communauté de communes Thiérache Sambre et Oise,923,6,0,4.Rural non périurbain,50.009,3.5248,I023340006,Piscine,Fresnoy-le-Grand,CC du Pays du Vermandois,7.96,11.965,24.86
02814,Villers-lès-Guise,02,02 - Aisne,200071983,Communauté de communes Thiérache Sambre et Oise,160,0,0,4.Rural non périurbain,49.9251,3.6827,I023610002,Centre aquatique AQUOISIA,Guise,CC Thiérache Sambre et Oise,3.303,3.938,5.03
02779,Vénérolles,02,02 - Aisne,200071983,Communauté de communes Thiérache Sambre et Oise,225,0,0,4.Rural non périurbain,49.9898,3.6287,I023610002,Centre aquatique AQUOISIA,Guise,CC Thiérache Sambre et Oise,9.387,13.369,19.5
02830,Wassigny,02,02 - Aisne,200071983,Communauté de communes Thiérache Sambre et Oise,946,0,0,4.Rural non périurbain,50.0177,3.6018,I591360007,Duo Le Cateau,Le Cateau-Cambrésis,CA du Caudrésis et du Catésis,9.975,12.681,15.58
02298,Étreux,02,02 - Aisne,200071983,Communauté de communes Thiérache Sambre et Oise,1455,0,0,4.Rural non périurbain,49.9985,3.6554,I023610002,Centre aquatique AQUOISIA,Guise,CC Thiérache Sambre et Oise,10.279,12.898,17.43
02604,Pithon,02,02 - Aisne,200070985,Communauté de communes de l'Est de la Somme,78,0,0,4.Rural non périurbain,49.7558,3.1047,I804100008,Piscine Aquari'Ham,Ham,CC de l'Est de la Somme,2.072,2.923,5.36
02005,Aguilcourt,02,02 - Aisne,240200576,Communauté de communes de la Champagne Picarde,405,4,0,3.Rural périurbain,49.3953,3.9663,I027200001,Espace sportif - Centre aquatique Rêvéo,Sissonne,CC de la Champagne Picarde,19.648,31.799,40.2
02013,Amifontaine,02,02 - Aisne,240200576,Communauté de communes de la Champagne Picarde,386,1,0,3.Rural périurbain,49.4977,3.9218,I027200001,Espace sportif - Centre aquatique Rêvéo,Sissonne,CC de la Champagne Picarde,7.824,15.0,30.5
02073,Berry-au-Bac,02,02 - Aisne,240200576,Communauté de communes de la Champagne Picarde,720,3,0,3.Rural périurbain,49.4076,3.8947,I027200001,Espace sportif - Centre aquatique Rêvéo,Sissonne,CC de la Champagne Picarde,17.661,21.772,24.9
02076,Bertricourt,02,02 - Aisne,240200576,Communauté de communes de la Champagne Picarde,154,2,0,3.Rural périurbain,49.3975,4.0116,I027200001,Espace sportif - Centre aquatique Rêvéo,Sissonne,CC de la Champagne Picarde,20.484,32.37,36.17
02097,Boncourt,02,02 - Aisne,240200576,Communauté de communes de la Champagne Picarde,270,0,0,4.Rural non périurbain,49.6287,3.9553,I027200001,Espace sportif - Centre aquatique Rêvéo,Sissonne,CC de la Champagne Picarde,8.048,9.474,17.88
02104,Bouffignereux,02,02 - Aisne,240200576,Communauté de communes de la Champagne Picarde,95,0,0,3.Rural périurbain,49.3776,3.847,I027200001,Espace sportif - Centre aquatique Rêvéo,Sissonne,CC de la Champagne Picarde,21.321,26.274,35.4
02133,Bucy-lès-Pierrepont,02,02 - Aisne,240200576,Communauté de communes de la Champagne Picarde,406,1,0,3.Rural périurbain,49.6494,3.904,I027200001,Espace sportif - Centre aquatique Rêvéo,Sissonne,CC de la Champagne Picarde,9.237,10.65,16.35
02171,Chaudardes,02,02 - Aisne,240200576,Communauté de communes de la Champagne Picarde,91,0,0,3.Rural périurbain,49.3968,3.788,I027200001,Espace sportif - Centre aquatique Rêvéo,Sissonne,CC de la Champagne Picarde,20.478,23.096,29.96
02189,Chivres-en-Laonnois,02,02 - Aisne,240200576,Communauté de communes de la Champagne Picarde,354,0,0,3.Rural périurbain,49.6256,3.8576,I027200001,Espace sportif - Centre aquatique Rêvéo,Sissonne,CC de la Champagne Picarde,7.21,16.419,25.34
02208,Concevreux,02,02 - Aisne,240200576,Communauté de communes de la Champagne Picarde,260,0,0,3.Rural périurbain,49.3781,3.7828,I027200001,Espace sportif - Centre aquatique Rêvéo,Sissonne,CC de la Champagne Picarde,22.545,25.997,35.78
02211,Condé-sur-Suippe,02,02 - Aisne,240200576,Communauté de communes de la Champagne Picarde,343,0,0,3.Rural périurbain,49.4147,3.9447,I027200001,Espace sportif - Centre aquatique Rêvéo,Sissonne,CC de la Champagne Picarde,17.197,24.52,32.92
02218,Coucy-lès-Eppes,02,02 - Aisne,240200576,Communauté de communes de la Champagne Picarde,647,3,0,3.Rural périurbain,49.556,3.7811,I024080034,Le dôme - Centre aquatique & patinoire,Laon,CA du Pays de Laon,9.394,10.13,11.9
02229,Courtrizy-et-Fussigny,02,02 - Aisne,240200576,Communauté de communes de la Champagne Picarde,76,0,0,4.Rural non périurbain,49.5152,3.7953,I027200001,Espace sportif - Centre aquatique Rêvéo,Sissonne,CC de la Champagne Picarde,9.37,13.455,16.35
02346,Gizy,02,02 - Aisne,240200576,Communauté de communes de la Champagne Picarde,634,4,0,3.Rural périurbain,49.6118,3.7661,I024080034,Le dôme - Centre aquatique & patinoire,Laon,CA du Pays de Laon,9.621,11.606,14.86
02350,Goudelancourt-lès-Pierrepont,02,02 - Aisne,240200576,Communauté de communes de la Champagne Picarde,141,0,0,3.Rural périurbain,49.6798,3.8529,I027200001,Espace sportif - Centre aquatique Rêvéo,Sissonne,CC de la Champagne Picarde,13.028,15.526,27.12
02364,Guyencourt,02,02 - Aisne,240200576,Communauté de communes de la Champagne Picarde,246,0,0,3.Rural périurbain,49.3579,3.8412,I027200001,Espace sportif - Centre aquatique Rêvéo,Sissonne,CC de la Champagne Picarde,23.551,27.517,37.18
02399,Juvincourt-et-Damary,02,02 - Aisne,240200576,Communauté de communes de la Champagne Picarde,608,1,0,3.Rural périurbain,49.4504,3.8904,I027200001,Espace sportif - Centre aquatique Rêvéo,Sissonne,CC de la Champagne Picarde,12.913,17.61,25.36
02454,La Malmaison,02,02 - Aisne,240200576,Communauté de communes de la Champagne Picarde,403,2,0,3.Rural périurbain,49.5168,3.9951,I027200001,Espace sportif - Centre aquatique Rêvéo,Sissonne,CC de la Champagne Picarde,8.892,16.162,19.59
02705,La Selve,02,02 - Aisne,240200576,Communauté de communes de la Champagne Picarde,198,0,0,4.Rural non périurbain,49.5706,3.9946,I027200001,Espace sportif - Centre aquatique Rêvéo,Sissonne,CC de la Champagne Picarde,6.95,7.653,9.69
02803,La Ville-aux-Bois-lès-Pontavert,02,02 - Aisne,240200576,Communauté de communes de la Champagne Picarde,148,0,0,3.Rural périurbain,49.4278,3.8536,I027200001,Espace sportif - Centre aquatique Rêvéo,Sissonne,CC de la Champagne Picarde,15.749,18.903,22.67
02409,Lappion,02,02 - Aisne,240200576,Communauté de communes de la Champagne Picarde,281,0,0,4.Rural non périurbain,49.5929,3.9689,I027200001,Espace sportif - Centre aquatique Rêvéo,Sissonne,CC de la Champagne Picarde,5.873,8.898,13.16
02430,Liesse-Notre-Dame,02,02 - Aisne,240200576,Communauté de communes de la Champagne Picarde,1265,8,0,3.Rural périurbain,49.6115,3.8271,I027200001,Espace sportif - Centre aquatique Rêvéo,Sissonne,CC de la Champagne Picarde,7.182,13.565,20.06
02440,Lor,02,02 - Aisne,240200576,Communauté de communes de la Champagne Picarde,139,0,0,3.Rural périurbain,49.5308,4.0544,I027200001,Espace sportif - Centre aquatique Rêvéo,Sissonne,CC de la Champagne Picarde,11.928,16.941,21.12
02453,Maizy,02,02 - Aisne,240200576,Communauté de communes de la Champagne Picarde,398,0,0,3.Rural périurbain,49.3754,3.7134,I027200001,Espace sportif - Centre aquatique Rêvéo,Sissonne,CC de la Champagne Picarde,25.097,28.963,34.48
02457,Marchais,02,02 - Aisne,240200576,Communauté de communes de la Champagne Picarde,391,3,0,3.Rural périurbain,49.5867,3.819,I027200001,Espace sportif - Centre aquatique Rêvéo,Sissonne,CC de la Champagne Picarde,6.156,7.911,9.41
02472,Mauregny-en-Haye,02,02 - Aisne,240200576,Communauté de communes de la Champagne Picarde,403,2,0,3.Rural périurbain,49.5437,3.7968,I027200001,Espace sportif - Centre aquatique Rêvéo,Sissonne,CC de la Champagne Picarde,7.754,9.979,17.18
02482,Meurival,02,02 - Aisne,240200576,Communauté de communes de la Champagne Picarde,58,1,0,3.Rural périurbain,49.3583,3.7621,I027200001,Espace sportif - Centre aquatique Rêvéo,Sissonne,CC de la Champagne Picarde,25.151,31.093,36.52
02486,Missy-lès-Pierrepont,02,02 - Aisne,240200576,Communauté de communes de la Champagne Picarde,106,1,0,3.Rural périurbain,49.6291,3.7862,I024080034,Le dôme - Centre aquatique & patinoire,Laon,CA du Pays de Laon,11.89,14.2,16.7
02498,Montaigu,02,02 - Aisne,240200576,Communauté de communes de la Champagne Picarde,766,1,0,3.Rural périurbain,49.555,3.8447,I027200001,Espace sportif - Centre aquatique Rêvéo,Sissonne,CC de la Champagne Picarde,4.078,8.322,11.61
02534,Muscourt,02,02 - Aisne,240200576,Communauté de communes de la Champagne Picarde,45,0,0,3.Rural périurbain,49.3589,3.7441,I027200001,Espace sportif - Centre aquatique Rêvéo,Sissonne,CC de la Champagne Picarde,25.628,30.43,36.69
02448,Mâchecourt,02,02 - Aisne,240200576,Communauté de communes de la Champagne Picarde,109,0,0,3.Rural périurbain,49.6509,3.8415,I027200001,Espace sportif - Centre aquatique Rêvéo,Sissonne,CC de la Champagne Picarde,10.252,16.771,20.31
02541,Neufchâtel-sur-Aisne,02,02 - Aisne,240200576,Communauté de communes de la Champagne Picarde,423,0,0,3.Rural périurbain,49.4382,4.0242,I027200001,Espace sportif - Centre aquatique Rêvéo,Sissonne,CC de la Champagne Picarde,16.903,22.787,27.79
02553,Nizy-le-Comte,02,02 - Aisne,240200576,Communauté de communes de la Champagne Picarde,232,0,0,3.Rural périurbain,49.5733,4.0348,I027200001,Espace sportif - Centre aquatique Rêvéo,Sissonne,CC de la Champagne Picarde,9.863,10.342,12.4
02572,Orainville,02,02 - Aisne,240200576,Communauté de communes de la Champagne Picarde,496,0,0,3.Rural périurbain,49.376,4.0123,I027200001,Espace sportif - Centre aquatique Rêvéo,Sissonne,CC de la Champagne Picarde,22.715,35.696,40.67
02601,Pignicourt,02,02 - Aisne,240200576,Communauté de communes de la Champagne Picarde,175,0,0,3.Rural périurbain,49.4064,4.0233,I027200001,Espace sportif - Centre aquatique Rêvéo,Sissonne,CC de la Champagne Picarde,19.948,31.059,34.21
02613,Pontavert,02,02 - Aisne,240200576,Communauté de communes de la Champagne Picarde,605,1,0,3.Rural périurbain,49.4189,3.8271,I027200001,Espace sportif - Centre aquatique Rêvéo,Sissonne,CC de la Champagne Picarde,17.192,19.757,28.11
02626,Prouvais,02,02 - Aisne,240200576,Communauté de communes de la Champagne Picarde,339,1,0,3.Rural périurbain,49.48,3.97,I027200001,Espace sportif - Centre aquatique Rêvéo,Sissonne,CC de la Champagne Picarde,10.909,18.149,30.32
02627,Proviseux-et-Plesnoy,02,02 - Aisne,240200576,Communauté de communes de la Champagne Picarde,133,0,0,3.Rural périurbain,49.4765,4.0177,I027200001,Espace sportif - Centre aquatique Rêvéo,Sissonne,CC de la Champagne Picarde,13.193,23.475,24.94
02656,Roucy,02,02 - Aisne,240200576,Communauté de communes de la Champagne Picarde,375,0,0,3.Rural périurbain,49.3787,3.8162,I027200001,Espace sportif - Centre aquatique Rêvéo,Sissonne,CC de la Champagne Picarde,21.702,23.672,30.54
02676,Saint-Erme-Outre-et-Ramecourt,02,02 - Aisne,240200576,Communauté de communes de la Champagne Picarde,1700,2,0,3.Rural périurbain,49.5219,3.8564,I027200001,Espace sportif - Centre aquatique Rêvéo,Sissonne,CC de la Champagne Picarde,5.805,6.65,8.9
02690,Sainte-Preuve,02,02 - Aisne,240200576,Communauté de communes de la Champagne Picarde,68,0,0,4.Rural non périurbain,49.619,3.9113,I027200001,Espace sportif - Centre aquatique Rêvéo,Sissonne,CC de la Champagne Picarde,5.921,6.597,10.82
02720,Sissonne,02,02 - Aisne,240200576,Communauté de communes de la Champagne Picarde,2061,0,2,4.Rural non périurbain,49.5685,3.9298,I027200001,Espace sportif - Centre aquatique Rêvéo,Sissonne,CC de la Champagne Picarde,2.274,2.651,4.01
02761,Variscourt,02,02 - Aisne,240200576,Communauté de communes de la Champagne Picarde,218,1,0,3.Rural périurbain,49.4152,3.9828,I027200001,Espace sportif - Centre aquatique Rêvéo,Sissonne,CC de la Champagne Picarde,17.884,26.139,34.7
02360,Villeneuve-sur-Aisne,02,02 - Aisne,240200576,Communauté de communes de la Champagne Picarde,2788,0,0,3.Rural périurbain,49.4409,3.9744,I027200001,Espace sportif - Centre aquatique Rêvéo,Sissonne,CC de la Champagne Picarde,14.995,21.423,28.65
02274,Ébouleau,02,02 - Aisne,240200576,Communauté de communes de la Champagne Picarde,173,1,0,3.Rural périurbain,49.6783,3.8871,I027200001,Espace sportif - Centre aquatique Rêvéo,Sissonne,CC de la Champagne Picarde,12.468,15.123,22.94
02299,Évergnicourt,02,02 - Aisne,240200576,Communauté de communes de la Champagne Picarde,526,1,0,3.Rural périurbain,49.4573,4.039,I027200001,Espace sportif - Centre aquatique Rêvéo,Sissonne,CC de la Champagne Picarde,15.817,24.184,25.31
02040,Autreppes,02,02 - Aisne,240200444,Communauté de communes de la Thiérache du Centre,176,0,0,4.Rural non périurbain,49.8963,3.8571,I023610002,Centre aquatique AQUOISIA,Guise,CC Thiérache Sambre et Oise,15.081,20.537,26.23
02044,Bancigny,02,02 - Aisne,240200444,Communauté de communes de la Thiérache du Centre,25,0,0,4.Rural non périurbain,49.7997,4.0383,I023810011,"Espace aquatique ""L'Ile Verte""",Hirson,CC des Trois Rivières,14.502,17.337,24.84
02050,Barzy-en-Thiérache,02,02 - Aisne,240200444,Communauté de communes de la Thiérache du Centre,317,2,0,4.Rural non périurbain,50.0378,3.7522,I590360001,Piscine Laurent Swaenepoel,Avesnes-sur-Helpe,CC Cœur de l'Avesnois,15.246,18.533,22.25
02067,Bergues-sur-Sambre,02,02 - Aisne,240200444,Communauté de communes de la Thiérache du Centre,206,0,0,4.Rural non périurbain,50.03,3.7114,I591360007,Duo Le Cateau,Le Cateau-Cambrésis,CA du Caudrésis et du Catésis,14.729,17.533,20.79
02068,Berlancourt,02,02 - Aisne,240200444,Communauté de communes de la Thiérache du Centre,81,0,0,4.Rural non périurbain,49.7799,3.757,I023610002,Centre aquatique AQUOISIA,Guise,CC Thiérache Sambre et Oise,16.106,23.473,27.58
02103,Boué,02,02 - Aisne,240200444,Communauté de communes de la Thiérache du Centre,1316,0,0,4.Rural non périurbain,50.0101,3.7126,I023610002,Centre aquatique AQUOISIA,Guise,CC Thiérache Sambre et Oise,12.466,17.479,22.93
02116,Braye-en-Thiérache,02,02 - Aisne,240200444,Communauté de communes de la Thiérache du Centre,133,2,0,4.Rural non périurbain,49.7665,3.9623,I027200001,Espace sportif - Centre aquatique Rêvéo,Sissonne,CC de la Champagne Picarde,22.719,31.174,33.01
02135,Buironfosse,02,02 - Aisne,240200444,Communauté de communes de la Thiérache du Centre,1125,0,0,4.Rural non périurbain,49.958,3.8371,I023610002,Centre aquatique AQUOISIA,Guise,CC Thiérache Sambre et Oise,14.768,16.659,18.08
02136,Burelles,02,02 - Aisne,240200444,Communauté de communes de la Thiérache du Centre,123,0,0,4.Rural non périurbain,49.7702,3.9148,I023810011,"Espace aquatique ""L'Ile Verte""",Hirson,CC des Trois Rivières,21.634,29.388,37.9
02182,Chevennes,02,02 - Aisne,240200444,Communauté de communes de la Thiérache du Centre,128,0,0,4.Rural non périurbain,49.8196,3.7386,I023610002,Centre aquatique AQUOISIA,Guise,CC Thiérache Sambre et Oise,11.653,16.32,24.22
02197,Clairfontaine,02,02 - Aisne,240200444,Communauté de communes de la Thiérache du Centre,522,2,0,4.Rural non périurbain,49.969,3.9919,I023810011,"Espace aquatique ""L'Ile Verte""",Hirson,CC des Trois Rivières,9.191,11.629,14.67
02206,Colonfay,02,02 - Aisne,240200444,Communauté de communes de la Thiérache du Centre,72,0,0,4.Rural non périurbain,49.8575,3.7117,I023610002,Centre aquatique AQUOISIA,Guise,CC Thiérache Sambre et Oise,7.125,11.84,16.84
02269,Dorengt,02,02 - Aisne,240200444,Communauté de communes de la Thiérache du Centre,150,0,0,4.Rural non périurbain,49.9656,3.7014,I023610002,Centre aquatique AQUOISIA,Guise,CC Thiérache Sambre et Oise,7.662,11.989,17.67
02276,Englancourt,02,02 - Aisne,240200444,Communauté de communes de la Thiérache du Centre,120,0,0,4.Rural non périurbain,49.9251,3.8081,I023610002,Centre aquatique AQUOISIA,Guise,CC Thiérache Sambre et Oise,11.718,15.921,23.24
02284,Erloy,02,02 - Aisne,240200444,Communauté de communes de la Thiérache du Centre,100,0,0,4.Rural non périurbain,49.9204,3.8394,I023610002,Centre aquatique AQUOISIA,Guise,CC Thiérache Sambre et Oise,13.86,19.596,25.85
02286,Esquéhéries,02,02 - Aisne,240200444,Communauté de communes de la Thiérache du Centre,849,0,0,4.Rural non périurbain,49.9779,3.7584,I023610002,Centre aquatique AQUOISIA,Guise,CC Thiérache Sambre et Oise,11.268,14.421,17.96
02308,Fesmy-le-Sart,02,02 - Aisne,240200444,Communauté de communes de la Thiérache du Centre,516,0,0,4.Rural non périurbain,50.0477,3.6972,I591360007,Duo Le Cateau,Le Cateau-Cambrésis,CA du Caudrésis et du Catésis,12.931,15.872,20.23
02321,Fontaine-lès-Vervins,02,02 - Aisne,240200444,Communauté de communes de la Thiérache du Centre,866,3,0,4.Rural non périurbain,49.8512,3.9084,I023810011,"Espace aquatique ""L'Ile Verte""",Hirson,CC des Trois Rivières,15.912,20.169,22.66
02324,Fontenelle,02,02 - Aisne,240200444,Communauté de communes de la Thiérache du Centre,289,0,0,4.Rural non périurbain,50.0299,3.8489,I590360001,Piscine Laurent Swaenepoel,Avesnes-sur-Helpe,CC Cœur de l'Avesnois,11.373,15.03,20.36
