id_equipement,id_installation,installation,equipement,code_commune,commune,epci_code,epci_nom,dep_code,departement,typologie_commune_source,particularite_installation,particularite_installation_brute,famille_equipement,type_equipement,code_type_equipement,rnb_id,type_utilisation,longueur_m,largeur_m,surface_bassin_m2,profondeur_min_m,profondeur_max_m,nb_couloirs,longitude,latitude,activites
E004I590090058,I590090058,CENTRE NAUTIQUE BABYLONE,DOJO Jeff Martin,59009,Villeneuve-d'Ascq,200093201,Métropole Européenne de Lille,59,Nord,Grands centres urbains,Piscine,Piscine,Salle de combat,Dojo / Salle d'arts martiaux,1801,G6D2HNB8SBFD,"Clubs sportifs,comités,ligues,fédérations,Scolaires,universités",,,,,,,3.14376,50.65204,Judo / Jujitsu / Taïso
E004I591220022,I591220022,Stade Nautique Liberté,petit bassin,59122,Cambrai,200068500,CA de Cambrai,59,Nord,Centres urbains intermédiaires,Piscine,Piscine,Bassin de natation,Bassin sportif de natation,102,64XH6A4NK3FE,"Individuel(s),famille(s),Clubs sportifs,comités,ligues,fédérations,Scolaires,universités,Autre - association(s) et groupes divers",25.0,6.0,150.0,1.0,1.3,,3.2267,50.1723,Baignade loisirs
E004I591360007,I591360007,Duo Le Cateau,Pentagliss,59136,Le Cateau-Cambrésis,200030633,CA du Caudrésis et du Catésis,59,Nord,Petites villes,Piscine,Piscine,Bassin de natation,Bassin de réception de toboggan,106,,,,,0.0,,,,3.531986,50.095265,Baignade loisirs
E004I591830058,I591830058,PISCINE PAUL ASSEMAN,Dojo,59183,Dunkerque,245900428,CU de Dunkerque,59,Nord,Grands centres urbains,Piscine,Piscine,Salle de combat,Dojo / Salle d'arts martiaux,1801,1QRWDV52174Z,"Clubs sportifs,comités,ligues,fédérations,Autre - association(s) et groupes divers",,,,,,,2.38574,51.04771,Karaté/Karaté jutsu/Goshin jutsu/Kobudo/Nihon Tai-jutsu/Taijitsu/Nambudo/Ninjutsu/Nunchaku/...
E004I592730013,I592730013,complexe Maurice Baude et Piscine Municipale,Piste d'athlétisme,59273,Gravelines,245900428,CU de Dunkerque,59,Nord,Petites villes,Piscine,Piscine,Equipement d'athlétisme,Piste d'athlétisme isolée,1004,,"Clubs sportifs,comités,ligues,fédérations,Scolaires,universités",,,,,,,2.13884,50.98631,Course sur piste
E004I595270004,I595270004,"Complexe Piscine, volley",PETIT BASSIN,59527,Saint-André-lez-Lille,200093201,Métropole Européenne de Lille,59,Nord,Grands centres urbains,Piscine,Piscine,Bassin de natation,Bassin mixte de natation,101,,"Individuel(s),famille(s),Clubs sportifs,comités,ligues,fédérations,Scolaires,universités,Autre - association(s) et groupes divers",12.5,12.5,156.3,0.3,1.3,,3.05097,50.65892,Baignade loisirs
E004I602230013,I602230013,CENTRE AQUATIQUE DE LA PLAINE D'ESTREES,Lagune de jeux,60223,Estrées-Saint-Denis,246000897,CC de la Plaine d'Estrées,60,Oise,Bourgs ruraux,Piscine,Piscine,Bassin de natation,Bassin ludique de natation,103,3Q5B4JEKKNHT,"Individuel(s),famille(s),Scolaires,universités,Autre - association(s) et groupes divers",9.0,3.0,9.0,1.0,1.0,,2.64326,49.42945,Baignade loisirs
E004I602820009,I602820009,PISCINE AQUALIS,Bassin ludique extérieur,60282,Gouvieux,246000764,CC de l'Aire Cantilienne,60,Oise,Ceintures urbaines,Piscine,Piscine,Bassin de natation,Bassin ludique de natation,103,,"Individuel(s),famille(s)",,,150.0,0.0,1.2,,2.43446,49.18919,Baignade loisirs
E004I606890002,I606890002,CENTRE DES SPORTS RIMBERLIEU,Bassin de 33m,60689,Villers-sur-Coudun,246000855,CC du Pays des Sources,60,Oise,Bourgs ruraux,"Complexe sportif,Piscine",Complexe sportif | Piscine,Bassin de natation,Bassin sportif de natation,102,,,33.0,12.0,396.0,,,,2.81426,49.488772,Baignade loisirs
E003I590090057,I590090057,PISCINE DU TRIOLO,SALLE DE MUSCULATION,59009,Villeneuve-d'Ascq,200093201,Métropole Européenne de Lille,59,Nord,Grands centres urbains,Piscine,Piscine,Equipement d'activités de forme et de santé,Salle de musculation/cardiotraining,802,ENSYV8BKBK35,"Individuel(s),famille(s),Clubs sportifs,comités,ligues,fédérations",,,,,,,3.147454,50.61376,Musculation
E003I591360007,I591360007,Duo Le Cateau,Bassin ludique,59136,Le Cateau-Cambrésis,200030633,CA du Caudrésis et du Catésis,59,Nord,Petites villes,Piscine,Piscine,Bassin de natation,Bassin ludique de natation,103,,,,,0.0,,,,3.531953,50.09544,Baignade loisirs
E003I592490005,I592490005,PISCINE MUNICIPALE,PETIT BASSIN,59249,Fourmies,200043404,CC du Sud Avesnois,59,Nord,Centres urbains intermédiaires,Piscine,Piscine,Bassin de natation,Bassin mixte de natation,101,,"Individuel(s),famille(s),Scolaires,universités,Autre - association(s) et groupes divers",15.0,12.0,300.0,0.8,1.2,,4.05141,50.01923,Baignade loisirs
E003I593400009,I593400009,PISCINE PAUL HANCOLAS ET SALLE DEMARTINICOURT,SALLE DEMARTINICOURT,59340,Leffrinckoucke,245900428,CU de Dunkerque,59,Nord,Grands centres urbains,"Piscine,Complexe sportif",Piscine | Complexe sportif,Salle multisports,Salle multisports (gymnase),1901,,"Clubs sportifs,comités,ligues,fédérations,Scolaires,universités",,,,,,,2.43986,51.0545,Basket-Ball | Handball / Mini hand / Handball de plage | Volley-ball / Volley-ball de plage (beach-volley) / Green-Volley
E003I593500093,I593500093,PISCINE MUNICIPALE/59355/LOMME,Petit bassin,59350,Lille,200093201,Métropole Européenne de Lille,59,Nord,Grands centres urbains,Piscine,Piscine,Bassin de natation,Bassin ludique de natation,103,XNGFA39SFAZB,"Individuel(s),famille(s),Clubs sportifs,comités,ligues,fédérations,Scolaires,universités,Autre - association(s) et groupes divers",15.0,8.0,120.0,0.3,1.3,,3.01476,50.64371,Aquagym | Baignade loisirs
E003I594100005,I594100005,PISCINE MUNICIPALE,Bassin de reception Toboggan,59410,Mons-en-Barœul,200093201,Métropole Européenne de Lille,59,Nord,Grands centres urbains,Piscine,Piscine,Bassin de natation,Bassin de réception de toboggan,106,6JTSF3Z86QXT,"Individuel(s),famille(s),Clubs sportifs,comités,ligues,fédérations,Scolaires,universités",6.0,4.0,24.0,1.1,1.1,,3.106604,50.639779,Baignade loisirs
E003I595070005,I595070005,PISCINE MUNICIPALE,PETIT BASSIN,59507,Ronchin,200093201,Métropole Européenne de Lille,59,Nord,Grands centres urbains,Piscine,Piscine,Bassin de natation,Bassin mixte de natation,101,M5EQ9AH5QFTW,"Clubs sportifs,comités,ligues,fédérations,Scolaires,universités",15.0,12.0,187.0,0.8,1.2,,3.09196,50.60282,Aquagym | Baignade loisirs
E003I601040007,I601040007,CENTRE NAUTIQUE PHILIPPE LOISEL - KALAMOS,Bassin ludique,60104,Breteuil,200068005,CC de l'Oise Picarde,60,Oise,Bourgs ruraux,Piscine,Piscine,Bassin de natation,Bassin ludique de natation,103,,"Individuel(s),famille(s)",25.0,,204.0,0.8,1.2,,2.30057,49.6355,Baignade loisirs
E003I601390001,I601390001,PISCINE AQUATHELLE,Terrain de Beach-volley,60139,Chambly,200067973,CC Thelloise,60,Oise,Centres urbains intermédiaires,Piscine,Piscine,Terrain extérieur de petits jeux collectifs,Terrain de beach-volley,2902,,"Individuel(s),famille(s)",,,,,,,2.25441,49.17192,Volley-ball / Volley-ball de plage (beach-volley) / Green-Volley
E003I601590027,I601590027,Plaine des sports Zac Mercieres,Terrains de football Merciére,60159,Compiègne,200067965,CA de la Région de Compiègne et de la Basse Automne,60,Oise,Centres urbains intermédiaires,"Complexe sportif,Piscine,Patinoire",Complexe sportif | Piscine | Patinoire,Terrain de grands jeux,Terrain de football,2802,,"Clubs sportifs,comités,ligues,fédérations,Scolaires,universités",,,,,,,2.78243,49.38783,Football / Football en salle (Futsal)
E003I602230013,I602230013,CENTRE AQUATIQUE DE LA PLAINE D'ESTREES,Bassin animation,60223,Estrées-Saint-Denis,246000897,CC de la Plaine d'Estrées,60,Oise,Bourgs ruraux,Piscine,Piscine,Bassin de natation,Bassin ludique de natation,103,3Q5B4JEKKNHT,"Individuel(s),famille(s),Scolaires,universités,Autre - association(s) et groupes divers",13.0,6.0,36.0,1.2,1.4,,2.64326,49.42945,Aquagym | Baignade loisirs
E003I602820009,I602820009,PISCINE AQUALIS,Bassin sportif extérieur,60282,Gouvieux,246000764,CC de l'Aire Cantilienne,60,Oise,Ceintures urbaines,Piscine,Piscine,Bassin de natation,Bassin sportif de natation,102,,"Individuel(s),famille(s),Scolaires,universités,Autre - association(s) et groupes divers",25.0,8.0,200.0,1.2,1.8,,2.43446,49.18919,Baignade loisirs | Natation course sportive
E003I620410045,I620410045,PISCINE ELIE DESBIN,Salle de musculation,62041,Arras,200033579,CU d'Arras,62,Pas-de-Calais,Grands centres urbains,Piscine,Piscine,Equipement d'activités de forme et de santé,Salle de musculation/cardiotraining,802,FVQ6SY4SMJQ1,"Clubs sportifs,comités,ligues,fédérations",,,,,,,2.79391,50.28006,Musculation
E003I021730004,I021730004,Espace Aquatique Oasis,Bassin toboggan,02173,Chauny,200071785,CA Chauny-Tergnier-La Fère,02,Aisne,Centres urbains intermédiaires,Piscine,Piscine,Bassin de natation,Bassin de réception de toboggan,106,SXSJK8XT3WZB,"Individuel(s),famille(s)",6.0,4.0,24.0,0.7,1.1,,3.21247,49.61923,Baignade loisirs
E003I023340006,I023340006,Piscine,Terrain multisports,02334,Fresnoy-le-Grand,240200493,CC du Pays du Vermandois,02,Aisne,Bourgs ruraux,Piscine,Piscine,Multisports/City-stades,Multisports/City-stades,1701,,"Individuel(s),famille(s)",,,,,,,3.43639,49.96571,Basket-Ball | Football / Football en salle (Futsal) | Volley-ball / Volley-ball de plage (beach-volley) / Green-Volley
E003I023400001,I023400001,Piscine,Petite salle de musculation,02340,Gauchy,200071892,CA du Saint-Quentinois,02,Aisne,Ceintures urbaines,Piscine,Piscine,Equipement d'activités de forme et de santé,Salle de musculation/cardiotraining,802,BB2C4RPQF8KQ,"Individuel(s),famille(s)",,,,,,,3.2914,49.83087,Musculation
E003I023810011,I023810011,"Espace aquatique ""L'Ile Verte""",Bowling,02381,Hirson,240200600,CC des Trois Rivières,02,Aisne,Petites villes,"Base de plein air et/ou de loisirs,Piscine",Base de plein air et/ou de loisirs | Piscine,Bowling,Bowling,301,,"Individuel(s),famille(s),Clubs sportifs,comités,ligues,fédérations,Autre - association(s) et groupes divers",,,,,,,4.09963,49.92398,Bowling
E003I024080034,I024080034,Le dôme - Centre aquatique & patinoire,Aire de sports de glace ludique N°2,02408,Laon,200043495,CA du Pays de Laon,02,Aisne,Centres urbains intermédiaires,"Piscine,Patinoire",Piscine | Patinoire,Aire de sports de glaces,Aire de sports de glace ludique,1503,9QB4BVH3SAVD,"Individuel(s),famille(s),Scolaires,universités,Autre - association(s) et groupes divers",,,,,,,3.65216,49.56711,Ballet sur glace / Danse sur glace / Patinage artistique
E003I026910035,I026910035,Base Urbaine de Loisirs de Saint Quentin,Salle de musculation,02691,Saint-Quentin,200071892,CA du Saint-Quentinois,02,Aisne,Centres urbains intermédiaires,"Complexe sportif,Piscine,Patinoire",Complexe sportif | Piscine | Patinoire,Equipement d'activités de forme et de santé,Salle de musculation/cardiotraining,802,NNH171HDB4CR,"Individuel(s),famille(s)",,,,,,,3.28562,49.83933,Musculation
E003I624570001,I624570001,PARC DEPARTEMENTAL DE NATURE ET DE LOISIRS D'OLHAIN,Passion Aventure,62356,Fresnicourt-le-Dolmen,200072460,"CA de Béthune-Bruay, Artois-Lys Romane",62,Pas-de-Calais,Rural à habitat dispersé,"Base de plein air et/ou de loisirs,Piscine",Base de plein air et/ou de loisirs | Piscine,Divers équipements Sports de nature,Parcours Acrobatique en Hauteur/Site d'accrobranche,3003,,"Individuel(s),famille(s),Scolaires,universités,Autre - association(s) et groupes divers",,,,,,,2.580508,50.438447,Escalade dans les arbres
E003I627580010,I627580010,Hélicéa,BASSIN LUDIQUE,62758,Saint-Martin-Boulogne,246200729,CA du Boulonnais,62,Pas-de-Calais,Grands centres urbains,"Complexe sportif,Piscine,Patinoire",Complexe sportif | Piscine | Patinoire,Bassin de natation,Bassin ludique de natation,103,PPWF5ZKTKV2C,"Individuel(s),famille(s),Autre - association(s) et groupes divers",30.0,10.0,100.0,0.9,1.3,,1.64395,50.731,Baignade loisirs
E004I023400001,I023400001,Piscine,Grande salle de musculation,02340,Gauchy,200071892,CA du Saint-Quentinois,02,Aisne,Ceintures urbaines,Piscine,Piscine,Equipement d'activités de forme et de santé,Salle de musculation/cardiotraining,802,BB2C4RPQF8KQ,"Individuel(s),famille(s)",,,,,,,3.2914,49.83087,Musculation
E004I026910012,I026910012,Piscine Jean Bouin,Terrain de Beach-Volley,02691,Saint-Quentin,200071892,CA du Saint-Quentinois,02,Aisne,Centres urbains intermédiaires,Piscine,Piscine,Terrain extérieur de petits jeux collectifs,Terrain de beach-volley,2902,,"Individuel(s),famille(s),Autre - association(s) et groupes divers",,,,,,,3.30916,49.8537,Volley-ball / Volley-ball de plage (beach-volley) / Green-Volley
E002I023810011,I023810011,"Espace aquatique ""L'Ile Verte""",Petit bassin,02381,Hirson,240200600,CC des Trois Rivières,02,Aisne,Petites villes,"Base de plein air et/ou de loisirs,Piscine",Base de plein air et/ou de loisirs | Piscine,Bassin de natation,Bassin ludique de natation,103,,"Individuel(s),famille(s),Scolaires,universités,Autre - association(s) et groupes divers",45.0,20.0,400.0,0.6,1.2,,4.09963,49.92398,Baignade loisirs
E002I028100025,I028100025,Piscine Intercommunale de Villers-Cotterêts,Bassin intérieur,02810,Villers-Cotterêts,200071991,CC Retz-en-Valois,02,Aisne,Centres urbains intermédiaires,Piscine,Piscine,Bassin de natation,Bassin mixte de natation,101,R2FVMHPPR5EQ,"Individuel(s),famille(s),Clubs sportifs,comités,ligues,fédérations,Scolaires,universités",25.0,10.0,250.0,0.9,2.1,,3.087628,49.260515,Aquagym | Baignade loisirs | Natation course sportive
E002I026910035,I026910035,Base Urbaine de Loisirs de Saint Quentin,Pistes de Bowling,02691,Saint-Quentin,200071892,CA du Saint-Quentinois,02,Aisne,Centres urbains intermédiaires,"Complexe sportif,Piscine,Patinoire",Complexe sportif | Piscine | Patinoire,Bowling,Bowling,301,NNH171HDB4CR,"Individuel(s),famille(s)",,,,,,,3.28562,49.83933,Bowling
E002I805700001,I805700001,Centre aquatique Alméo,Bassin ludique,80570,Moreuil,200070969,CC Avre Luce Noye,80,Somme,Bourgs ruraux,Piscine,Piscine,Bassin de natation,Bassin ludique de natation,103,KHW35W4AGF2D,"Individuel(s),famille(s),Clubs sportifs,comités,ligues,fédérations,Scolaires,universités",,,170.0,0.8,1.3,,2.49116,49.7673,Aquagym | Baignade loisirs | Natation course sportive
E002I806200031,I806200031,Piscine Tournesol,Terrain de beach-volley,80620,Péronne,200037059,CC de la Haute Somme (Combles - Péronne - Roisel),80,Somme,Petites villes,Piscine,Piscine,Terrain extérieur de petits jeux collectifs,Terrain de beach-volley,2902,,"Individuel(s),famille(s)",,,,,,,2.94525,49.93553,Volley-ball / Volley-ball de plage (beach-volley) / Green-Volley
E002I595440006,I595440006,PISCINE MUNICIPALE,BASSIN LUDIQUE,59544,Saint-Saulve,245901160,CA Valenciennes Métropole,59,Nord,Grands centres urbains,Piscine,Piscine,Bassin de natation,Bassin ludique de natation,103,BQK7ZVYZ3K5M,"Individuel(s),famille(s),Autre - association(s) et groupes divers",8.0,8.0,64.0,1.0,1.0,,3.52196,50.36444,Baignade loisirs
E002I020710003,I020710003,"Camping ""La Croix du vieux Pont",Petit bassin extérieur,02071,Berny-Rivière,200071991,CC Retz-en-Valois,02,Aisne,Rural à habitat dispersé,Piscine,Piscine,Bassin de natation,Bassin ludique de natation,103,,"Individuel(s),famille(s)",10.0,10.0,20.0,0.9,0.9,,3.12937,49.40507,Baignade loisirs
E002I027200001,I027200001,Espace sportif - Centre aquatique Rêvéo,Piste d'athlétisme,02720,Sissonne,240200576,CC de la Champagne Picarde,02,Aisne,Bourgs ruraux,"Complexe sportif,Piscine",Complexe sportif | Piscine,Equipement d'athlétisme,Piste d'athlétisme isolée,1004,,"Clubs sportifs,comités,ligues,fédérations,Scolaires,universités,Autre - association(s) et groupes divers",,,,,,,3.89705,49.5661,Course sur piste
E002I026910012,I026910012,Piscine Jean Bouin,Grand bassin extérieur,02691,Saint-Quentin,200071892,CA du Saint-Quentinois,02,Aisne,Centres urbains intermédiaires,Piscine,Piscine,Bassin de natation,Bassin mixte de natation,101,,"Individuel(s),famille(s),Clubs sportifs,comités,ligues,fédérations,Scolaires,universités,Autre - association(s) et groupes divers",25.0,15.0,375.0,1.9,3.7,,3.30887,49.85321,Aquagym | Baignade loisirs
E001I028100025,I028100025,Piscine Intercommunale de Villers-Cotterêts,Bassin extérieur,02810,Villers-Cotterêts,200071991,CC Retz-en-Valois,02,Aisne,Centres urbains intermédiaires,Piscine,Piscine,Bassin de natation,Bassin sportif de natation,102,,"Individuel(s),famille(s),Scolaires,universités,Autre - association(s) et groupes divers",25.0,12.5,312.5,0.9,2.5,,3.087675,49.260192,Aquagym | Baignade loisirs | Natation course sportive
E006I800010025,I800010025,Piscine : AQU'ABB,Fosse à plongeon,80001,Abbeville,200070993,CA de la Baie de Somme,80,Somme,Centres urbains intermédiaires,Piscine,Piscine,Bassin de natation,Fosse à plongeon,104,CP8V8GMPVN8B,"Individuel(s),famille(s),Clubs sportifs,comités,ligues,fédérations",15.0,12.0,180.0,5.0,5.0,,1.83996,50.11069,Plongeon
E006I805700001,I805700001,Centre aquatique Alméo,Salle de cardio training,80570,Moreuil,200070969,CC Avre Luce Noye,80,Somme,Bourgs ruraux,Piscine,Piscine,Equipement d'activités de forme et de santé,Salle de musculation/cardiotraining,802,KHW35W4AGF2D,"Individuel(s),famille(s),Clubs sportifs,comités,ligues,fédérations,Scolaires,universités,Autre - association(s) et groupes divers",,,,,,,2.49116,49.7673,Activités de forme et de santé | Musculation
E007I023810011,I023810011,"Espace aquatique ""L'Ile Verte""",Salle de fitness,02381,Hirson,240200600,CC des Trois Rivières,02,Aisne,Petites villes,"Base de plein air et/ou de loisirs,Piscine",Base de plein air et/ou de loisirs | Piscine,Equipement d'activités de forme et de santé,Salle de cours collectifs,801,,"Individuel(s),famille(s)",,,,,,,4.098482,49.923711,Activités de forme et de santé | Autres Danses
E007I027200001,I027200001,Espace sportif - Centre aquatique Rêvéo,"Piscine, bassin 2",02720,Sissonne,240200576,CC de la Champagne Picarde,02,Aisne,Bourgs ruraux,"Complexe sportif,Piscine",Complexe sportif | Piscine,Bassin de natation,Bassin ludique de natation,103,3YFJW8RK28YF,"Individuel(s),famille(s),Clubs sportifs,comités,ligues,fédérations,Scolaires,universités,Autre - association(s) et groupes divers",,,149.0,1.3,1.3,,3.898473,49.566217,Aquagym | Baignade loisirs
E005I800210059,I800210059,Coliseum,Salle de chorégraphie,80021,Amiens,248000531,CA Amiens Métropole,80,Somme,Grands centres urbains,"Complexe sportif,Piscine,Patinoire",Complexe sportif | Piscine | Patinoire,Salle ou terrain spécialisé,Salle de danse,2105,SV51SDFKPJTJ,"Clubs sportifs,comités,ligues,fédérations,Scolaires,universités",,,,,,,2.28889,49.89371,Aikido / Aikibudo / Budo | Autres Danses | Danses par Couple (Danses de compétition) | Gymnastique volontaire | Kendo / Iaïdo / Naginata / Jodo / Sport chanbara
E005I800210162,I800210162,Centre Aquatique Amiens Metropole,plateau cardio training,80021,Amiens,248000531,CA Amiens Métropole,80,Somme,Grands centres urbains,Piscine,Piscine,Equipement d'activités de forme et de santé,Salle de musculation/cardiotraining,802,,"Individuel(s),famille(s),Clubs sportifs,comités,ligues,fédérations,Autre - association(s) et groupes divers",,,,,,,2.290417,49.87343,Cyclisme en salle | Gymnastique Aérobic
E002I020370001,I020370001,Complexe sportif,Petit bassin,02037,Aulnois-sous-Laon,200043495,CA du Pays de Laon,02,Aisne,Bourgs ruraux,"Complexe sportif,Piscine",Complexe sportif | Piscine,Bassin de natation,Bassin ludique de natation,103,,"Individuel(s),famille(s),Scolaires,universités",19.0,6.0,114.0,0.3,1.2,,3.61387,49.60672,Baignade loisirs
E002I020590004,I020590004,Piscine Lucien Lahaye,Bassin de natation ludique,02059,Beautor,200071785,CA Chauny-Tergnier-La Fère,02,Aisne,Ceintures urbaines,Piscine,Piscine,Bassin de natation,Bassin ludique de natation,103,NK7PKZ8GZ3SM,"Individuel(s),famille(s),Clubs sportifs,comités,ligues,fédérations,Scolaires,universités,Autre - association(s) et groupes divers",15.0,12.0,188.0,0.6,1.2,,3.34366,49.64394,Activités de forme et de santé | Baignade loisirs
E002I021730004,I021730004,Espace Aquatique Oasis,Bassin sportif,02173,Chauny,200071785,CA Chauny-Tergnier-La Fère,02,Aisne,Centres urbains intermédiaires,Piscine,Piscine,Bassin de natation,Bassin sportif de natation,102,SXSJK8XT3WZB,"Individuel(s),famille(s),Clubs sportifs,comités,ligues,fédérations,Scolaires,universités",25.0,15.0,375.0,0.7,1.8,,3.21247,49.61923,Baignade loisirs | Natation course sportive | Natation synchronisée | Water-Polo
E002I024080034,I024080034,Le dôme - Centre aquatique & patinoire,Aire de sports de glace ludique N°1,02408,Laon,200043495,CA du Pays de Laon,02,Aisne,Centres urbains intermédiaires,"Piscine,Patinoire",Piscine | Patinoire,Aire de sports de glaces,Aire de sports de glace ludique,1503,9QB4BVH3SAVD,"Individuel(s),famille(s),Scolaires,universités,Autre - association(s) et groupes divers",,,,,,,3.65216,49.56711,Ballet sur glace / Danse sur glace / Patinage artistique
E002I021680004,I021680004,Complexe Citélium,Bassin ludique,02168,Château-Thierry,200072031,CA de la Région de Château-Thierry,02,Aisne,Centres urbains intermédiaires,Piscine,Piscine,Bassin de natation,Bassin ludique de natation,103,,"Individuel(s),famille(s),Clubs sportifs,comités,ligues,fédérations,Scolaires,universités,Autre - association(s) et groupes divers",15.0,6.5,107.5,0.8,1.4,,3.39133,49.0667,Aquagym | Baignade loisirs
E003I590090058,I590090058,CENTRE NAUTIQUE BABYLONE,BASSIN,59009,Villeneuve-d'Ascq,200093201,Métropole Européenne de Lille,59,Nord,Grands centres urbains,Piscine,Piscine,Bassin de natation,Bassin mixte de natation,101,G6D2HNB8SBFD,"Individuel(s),famille(s),Clubs sportifs,comités,ligues,fédérations,Scolaires,universités,Autre - association(s) et groupes divers",25.0,15.0,490.0,0.6,2.5,,3.143764,50.652045,Aquagym | Natation course sportive | Plongée subaquatique (Plongée libre) | Sauvetage côtier/Surfboat | Triathlon | Water-Polo
E003I591220022,I591220022,Stade Nautique Liberté,Bassin Ludique,59122,Cambrai,200068500,CA de Cambrai,59,Nord,Centres urbains intermédiaires,Piscine,Piscine,Bassin de natation,Bassin ludique de natation,103,64XH6A4NK3FE,"Individuel(s),famille(s),Scolaires,universités,Autre - association(s) et groupes divers",15.0,5.0,75.0,0.3,1.5,,3.2267,50.1723,Baignade loisirs
E003I591720022,I591720022,Centre Aqualudique Natur&O,Bassin extérieur nordique,59172,Denain,200042190,CA de la Porte du Hainaut,59,Nord,Centres urbains intermédiaires,Piscine,Piscine,Bassin de natation,Bassin ludique de natation,103,QRCZY959RKH3,"Individuel(s),famille(s),Clubs sportifs,comités,ligues,fédérations,Scolaires,universités,Autre - association(s) et groupes divers",,,201.4,,,,3.393402,50.322217,Baignade loisirs
E003I592730013,I592730013,complexe Maurice Baude et Piscine Municipale,Petit Bassin,59273,Gravelines,245900428,CU de Dunkerque,59,Nord,Petites villes,Piscine,Piscine,Bassin de natation,Bassin ludique de natation,103,MFWJJ7G4HAVN,"Individuel(s),famille(s),Clubs sportifs,comités,ligues,fédérations,Scolaires,universités",10.0,10.0,100.0,0.4,1.1,,2.137227,50.986166,Aquagym | Natation course sportive
E003I591390015,I591390015,Espace Nautique Intercommunal (ENI),Bassin d'apprentissage,59139,Caudry,200030633,CA du Caudrésis et du Catésis,59,Nord,Centres urbains intermédiaires,Piscine,Piscine,Bassin de natation,Bassin sportif de natation,102,DRERWZMSTKC9,"Individuel(s),famille(s),Clubs sportifs,comités,ligues,fédérations,Scolaires,universités,Autre - association(s) et groupes divers",12.0,12.0,144.0,1.0,1.4,,3.39568,50.12819,Activités de forme et de santé | Aquagym | Baignade loisirs
E003I593030010,I593030010,Piscine des WEPPES,Bassin éducatif,59303,Herlies,200093201,Métropole Européenne de Lille,59,Nord,Ceintures urbaines,Piscine,Piscine,Bassin de natation,Bassin sportif de natation,102,,"Individuel(s),famille(s),Clubs sportifs,comités,ligues,fédérations,Scolaires,universités",10.0,5.0,50.0,1.0,1.0,,2.854375,50.576812,Baignade loisirs
E003I593780017,I593780017,Piscine Municipale,Grand Bassin,59378,Marcq-en-Barœul,200093201,Métropole Européenne de Lille,59,Nord,Grands centres urbains,Piscine,Piscine,Bassin de natation,Bassin sportif de natation,102,PHGE3EN1AC9X,"Individuel(s),famille(s),Clubs sportifs,comités,ligues,fédérations,Scolaires,universités,Autre - association(s) et groupes divers",25.0,15.0,375.0,2.0,2.0,,3.08659,50.66599,Baignade loisirs | Natation course sportive | Natation synchronisée | Plongée subaquatique (Plongée libre)
E003I595270004,I595270004,"Complexe Piscine, volley",PISCINE MUNICIPALE GRAND BASSIN,59527,Saint-André-lez-Lille,200093201,Métropole Européenne de Lille,59,Nord,Grands centres urbains,Piscine,Piscine,Bassin de natation,Bassin sportif de natation,102,,"Clubs sportifs,comités,ligues,fédérations,Scolaires,universités",25.0,12.5,312.5,1.8,4.6,,3.04966,50.65853,Baignade loisirs | Natation course sportive | Plongée d'exploration / Photographie subaquatique
E003I020710003,I020710003,"Camping ""La Croix du vieux Pont",Bassin intérieur,02071,Berny-Rivière,200071991,CC Retz-en-Valois,02,Aisne,Rural à habitat dispersé,Piscine,Piscine,Bassin de natation,Bassin ludique de natation,103,,"Individuel(s),famille(s),Scolaires,universités",22.0,9.0,198.0,0.9,2.5,,3.12926,49.40491,Aquagym | Baignade loisirs
E004I023810011,I023810011,"Espace aquatique ""L'Ile Verte""",Espace billard,02381,Hirson,240200600,CC des Trois Rivières,02,Aisne,Petites villes,"Base de plein air et/ou de loisirs,Piscine",Base de plein air et/ou de loisirs | Piscine,Salle ou terrain spécialisé,Salle de billard,2103,,"Individuel(s),famille(s)",,,,,,,4.09963,49.92398,Billard (Français (carambole) | Snooker | Anglais | Américain)
E004I024080034,I024080034,Le dôme - Centre aquatique & patinoire,Bassin de natation sportif,02408,Laon,200043495,CA du Pays de Laon,02,Aisne,Centres urbains intermédiaires,"Piscine,Patinoire",Piscine | Patinoire,Bassin de natation,Bassin sportif de natation,102,9QB4BVH3SAVD,"Individuel(s),famille(s),Clubs sportifs,comités,ligues,fédérations,Scolaires,universités,Autre - association(s) et groupes divers",25.0,15.0,375.0,2.1,2.3,,3.65216,49.56711,Activités de forme et de santé | Baignade loisirs | Nage avec palmes | Natation course sportive | Natation synchronisée | Water-Polo
E003I600570045,I600570045,Aquaspace,Bassin sportif,60057,Beauvais,200067999,CA du Beauvaisis,60,Oise,Centres urbains intermédiaires,Piscine,Piscine,Bassin de natation,Bassin sportif de natation,102,2D2RTZT5H2QT,"Individuel(s),famille(s),Clubs sportifs,comités,ligues,fédérations,Scolaires,universités,Autre - association(s) et groupes divers",25.0,21.0,525.0,1.8,2.6,,2.094182,49.451773,Baignade loisirs | Hockey subaquatique | Nage avec palmes | Natation course sportive | Natation synchronisée | Plongée en apnée | Water-Polo
E003I606890002,I606890002,CENTRE DES SPORTS RIMBERLIEU,6 tennis extérieurs,60689,Villers-sur-Coudun,246000855,CC du Pays des Sources,60,Oise,Bourgs ruraux,"Complexe sportif,Piscine",Complexe sportif | Piscine,Court de tennis,Court de tennis,501,,,,,,,,,2.81307,49.48812,
E003I624980051,I624980051,Aqualens,Bassin aqualudique,62498,Lens,246200364,CA de Lens - Liévin,62,Pas-de-Calais,Grands centres urbains,Piscine,Piscine,Bassin de natation,Bassin ludique de natation,103,,"Individuel(s),famille(s)",10.8,13.9,150.0,0.8,1.3,,2.818218,50.431896,Aquagym | Baignade loisirs
E003I625060002,I625060002,SALLE DE JEUX ET TERRAINS DE PETANQUE,Piscine,62506,Licques,200072478,CC Pays d'Opale,62,Pas-de-Calais,Bourgs ruraux,Piscine,Piscine,Bassin de natation,Bassin ludique de natation,103,,"Individuel(s),famille(s)",9.8,4.7,46.6,1.3,1.3,,1.948299,50.779729,Baignade loisirs
E003I625100041,I625100041,Espace aquatique et de remise en forme NAUTICAA,Bassin balnéo-thérapie,62510,Liévin,246200364,CA de Lens - Liévin,62,Pas-de-Calais,Grands centres urbains,Piscine,Piscine,Bassin de natation,Bassin ludique de natation,103,F8QHKT486WFE,"Individuel(s),famille(s)",13.3,10.0,133.0,1.3,1.3,,2.771494,50.416872,Aquagym | Baignade loisirs
E003I625490001,I625490001,Aquatic & Bowling Center de l'Hesdinois,Bassin ludique extérieur,62549,Marconne,200044030,CC des 7 Vallées,62,Pas-de-Calais,Petites villes,Piscine,Piscine,Bassin de natation,Bassin ludique de natation,103,,"Individuel(s),famille(s),Scolaires,universités,Autre - association(s) et groupes divers",10.0,10.0,20.0,0.8,1.3,,2.029365,50.367088,Baignade loisirs
E003I628650007,I628650007,Centre aquatique Aquatis,Pataugeoire,62865,Vitry-en-Artois,200044048,CC Osartis Marquion,62,Pas-de-Calais,Ceintures urbaines,Piscine,Piscine,Bassin de natation,Bassin ludique de natation,103,,"Individuel(s),famille(s)",,,34.0,0.1,0.4,,2.980227,50.332866,Baignade loisirs
E003I620480002,I620480002,COMPLEXE BASLY,TERRAIN DE HANDBALL,62048,Auchel,200072460,"CA de Béthune-Bruay, Artois-Lys Romane",62,Pas-de-Calais,Centres urbains intermédiaires,"Complexe sportif,Piscine",Complexe sportif | Piscine,Terrain extérieur de petits jeux collectifs,Terrain de handball,2903,,"Individuel(s),famille(s),Scolaires,universités",,,,,,,2.468287,50.506017,Handball / Mini hand / Handball de plage
E002I625590002,I625590002,COMPLEXE SPORTIF DU COLLEGE DES MARCHES DE L'ARTOIS,SALLE DES SPORTS,62559,Marquion,200044048,CC Osartis Marquion,62,Pas-de-Calais,Bourgs ruraux,"Complexe sportif,Piscine,Etablissement scolaire",Complexe sportif | Piscine | Etablissement scolaire,Salle multisports,Salle multisports (gymnase),1901,,"Clubs sportifs,comités,ligues,fédérations,Scolaires,universités,Autre - association(s) et groupes divers",,,,,,,3.083038,50.208824,Badminton | Jeu de volant | Basket-Ball | Football / Football en salle (Futsal) | Gymnastique Artistique | Gymnastique Rythmique | Handball / Mini hand / Handball de plage | Tennis de table | Volley-ball / Volley-ball de plage (beach-volley) / Green-Volley
E004I590330010,I590330010,Complexe Aquatique l'Aiguade,Petit Bassin Ludique,59033,Aulnoye-Aymeries,200043396,CA Maubeuge Val de Sambre,59,Nord,Centres urbains intermédiaires,Piscine,Piscine,Bassin de natation,Bassin ludique de natation,103,,"Individuel(s),famille(s),Clubs sportifs,comités,ligues,fédérations,Scolaires,universités",,7.0,110.0,0.9,1.2,,3.835044,50.202904,Baignade loisirs
E004I590360001,I590360001,Piscine Laurent Swaenepoel,Salle de Danse,59036,Avesnes-sur-Helpe,200043263,CC Cœur de l'Avesnois,59,Nord,Petites villes,Piscine,Piscine,Salle ou terrain spécialisé,Salle de danse,2105,,"Clubs sportifs,comités,ligues,fédérations",,,,,,,3.92231,50.12056,Autres Danses
E004I592490005,I592490005,PISCINE MUNICIPALE,GRAND BASSIN,59249,Fourmies,200043404,CC du Sud Avesnois,59,Nord,Centres urbains intermédiaires,Piscine,Piscine,Bassin de natation,Bassin sportif de natation,102,,"Individuel(s),famille(s),Clubs sportifs,comités,ligues,fédérations,Scolaires,universités,Autre - association(s) et groupes divers",25.0,15.0,375.0,1.8,3.8,,4.05141,50.01923,Baignade loisirs | Natation course sportive | Plongée subaquatique (Plongée libre)
E004I595990002,I595990002,Tourcoing les Bains,Salle de Fitness,59599,Tourcoing,200093201,Métropole Européenne de Lille,59,Nord,Grands centres urbains,Piscine,Piscine,Equipement d'activités de forme et de santé,Salle de cours collectifs,801,Z472FH2KCM6B,"Individuel(s),famille(s)",,,,,,,3.160383,50.724367,Activités de forme et de santé
E004I600570045,I600570045,Aquaspace,Bassin de loisirs,60057,Beauvais,200067999,CA du Beauvaisis,60,Oise,Centres urbains intermédiaires,Piscine,Piscine,Bassin de natation,Bassin ludique de natation,103,2D2RTZT5H2QT,"Individuel(s),famille(s),Clubs sportifs,comités,ligues,fédérations,Scolaires,universités,Autre - association(s) et groupes divers",,,300.0,,,,2.094182,49.451773,Baignade loisirs
E003I591830058,I591830058,PISCINE PAUL ASSEMAN,Salle de musculation,59183,Dunkerque,245900428,CU de Dunkerque,59,Nord,Grands centres urbains,Piscine,Piscine,Equipement d'activités de forme et de santé,Salle de musculation/cardiotraining,802,1QRWDV52174Z,"Individuel(s),famille(s),Clubs sportifs,comités,ligues,fédérations",,,,,,,2.38636,51.04782,Musculation
E003I592860012,I592860012,"Centre Aquatique Loos Haubourdin ""NEPTUNIA""",salle de Musculation,59286,Haubourdin,200093201,Métropole Européenne de Lille,59,Nord,Grands centres urbains,Piscine,Piscine,Equipement d'activités de forme et de santé,Salle de musculation/cardiotraining,802,N87HD4E2E758,"Individuel(s),famille(s),Clubs sportifs,comités,ligues,fédérations",,,,,,,2.99678,50.61451,Musculation
E003I595990002,I595990002,Tourcoing les Bains,Salle de Cardio Trainning,59599,Tourcoing,200093201,Métropole Européenne de Lille,59,Nord,Grands centres urbains,Piscine,Piscine,Equipement d'activités de forme et de santé,Salle de musculation/cardiotraining,802,Z472FH2KCM6B,"Individuel(s),famille(s)",,,,,,,3.160383,50.724367,Activités de forme et de santé | Musculation
E003I591830087,I591830087,Piscine Georges Guynemer,Fosse à plongée,59183,Dunkerque,245900428,CU de Dunkerque,59,Nord,Grands centres urbains,Piscine,Piscine,Bassin de natation,Fosse à plongée,105,,"Clubs sportifs,comités,ligues,fédérations",,6.0,,3.0,20.0,,2.32902,51.021923,Plongée subaquatique (Plongée libre)
E003I595120028,I595120028,Centre Nautique THALASSA,PISCINE BASSIN MIXTE,59512,Roubaix,200093201,Métropole Européenne de Lille,59,Nord,Grands centres urbains,Piscine,Piscine,Bassin de natation,Bassin mixte de natation,101,3A4C7S2WNATR,"Individuel(s),famille(s),Clubs sportifs,comités,ligues,fédérations,Scolaires,universités",47.0,15.0,705.0,0.6,2.5,,3.16359,50.691306,Aquagym | Baignade loisirs | Natation course sportive
E001I020370001,I020370001,Complexe sportif,Grand bassin,02037,Aulnois-sous-Laon,200043495,CA du Pays de Laon,02,Aisne,Bourgs ruraux,"Complexe sportif,Piscine",Complexe sportif | Piscine,Bassin de natation,Bassin ludique de natation,103,,"Individuel(s),famille(s)",25.0,19.0,475.0,0.7,2.6,,3.61365,49.60678,Baignade loisirs
E001I020710003,I020710003,"Camping ""La Croix du vieux Pont",Grand bassin Extérieur,02071,Berny-Rivière,200071991,CC Retz-en-Valois,02,Aisne,Rural à habitat dispersé,Piscine,Piscine,Bassin de natation,Bassin ludique de natation,103,,"Individuel(s),famille(s)",16.0,7.0,118.0,0.9,2.5,,3.12937,49.40507,Baignade loisirs
E001I022090001,I022090001,Piscine Municipale (type entérée),Piscine Municipale (type entérée),02209,Condé-en-Brie,200072031,CA de la Région de Château-Thierry,02,Aisne,Rural à habitat dispersé,Piscine,Piscine,Bassin de natation,Bassin ludique de natation,103,,"Individuel(s),famille(s),Autre - association(s) et groupes divers",12.4,6.2,76.9,0.8,1.6,,3.55535,49.00427,Baignade loisirs
E001I021680004,I021680004,Complexe Citélium,Toboggan,02168,Château-Thierry,200072031,CA de la Région de Château-Thierry,02,Aisne,Centres urbains intermédiaires,Piscine,Piscine,Bassin de natation,Bassin de réception de toboggan,106,,"Individuel(s),famille(s),Clubs sportifs,comités,ligues,fédérations,Scolaires,universités,Autre - association(s) et groupes divers",6.0,3.0,18.0,0.3,1.0,,3.39057,49.06838,Baignade loisirs
E001I023400001,I023400001,Piscine,Petit bassin,02340,Gauchy,200071892,CA du Saint-Quentinois,02,Aisne,Ceintures urbaines,Piscine,Piscine,Bassin de natation,Bassin ludique de natation,103,BB2C4RPQF8KQ,"Individuel(s),famille(s),Scolaires,universités,Autre - association(s) et groupes divers",10.0,6.0,60.0,1.0,1.0,,3.2914,49.83087,Aquagym | Baignade loisirs
E001I026910012,I026910012,Piscine Jean Bouin,Grand bassin intérieur,02691,Saint-Quentin,200071892,CA du Saint-Quentinois,02,Aisne,Centres urbains intermédiaires,Piscine,Piscine,Bassin de natation,Bassin mixte de natation,101,,"Individuel(s),famille(s),Clubs sportifs,comités,ligues,fédérations,Scolaires,universités,Autre - association(s) et groupes divers",25.0,15.0,375.0,1.7,2.4,,3.30916,49.8537,Baignade loisirs | Nage avec palmes | Natation course sportive | Natation synchronisée | Plongée subaquatique (Plongée libre) | Sauvetage en eau plate
E001I026910035,I026910035,Base Urbaine de Loisirs de Saint Quentin,Patinoire,02691,Saint-Quentin,200071892,CA du Saint-Quentinois,02,Aisne,Centres urbains intermédiaires,"Complexe sportif,Piscine,Patinoire",Complexe sportif | Piscine | Patinoire,Aire de sports de glaces,Aire de sports de glace ludique,1503,NNH171HDB4CR,"Individuel(s),famille(s)",,,,,,,3.284736,49.839115,Ballet sur glace / Danse sur glace / Patinage artistique
E002I590090057,I590090057,PISCINE DU TRIOLO,PETIT BASSIN,59009,Villeneuve-d'Ascq,200093201,Métropole Européenne de Lille,59,Nord,Grands centres urbains,Piscine,Piscine,Bassin de natation,Bassin ludique de natation,103,ENSYV8BKBK35,"Individuel(s),famille(s),Clubs sportifs,comités,ligues,fédérations,Scolaires,universités",15.0,12.0,188.0,0.6,1.2,,3.14758,50.61375,Aquagym | Baignade loisirs
E002I590280009,I590280009,PISCINE MUNICIPALE,BASSIN LUDIQUE,59028,Auby,200044618,CA Douaisis Agglo,59,Nord,Ceintures urbaines,Piscine,Piscine,Bassin de natation,Bassin ludique de natation,103,,"Individuel(s),famille(s),Scolaires,universités",,,70.0,1.0,1.3,,3.05825,50.41721,Aquagym | Baignade loisirs
E002I590330010,I590330010,Complexe Aquatique l'Aiguade,Petit Bassin,59033,Aulnoye-Aymeries,200043396,CA Maubeuge Val de Sambre,59,Nord,Centres urbains intermédiaires,Piscine,Piscine,Bassin de natation,Bassin sportif de natation,102,,"Individuel(s),famille(s)",22.0,15.0,330.0,0.7,1.3,,3.835044,50.202904,Aquagym | Baignade loisirs
E002I591390015,I591390015,Espace Nautique Intercommunal (ENI),Bassin ludique,59139,Caudry,200030633,CA du Caudrésis et du Catésis,59,Nord,Centres urbains intermédiaires,Piscine,Piscine,Bassin de natation,Bassin ludique de natation,103,DRERWZMSTKC9,"Individuel(s),famille(s),Scolaires,universités,Autre - association(s) et groupes divers",,,150.0,0.8,1.2,,3.39568,50.1282,Baignade loisirs
E002I800010025,I800010025,Piscine : AQU'ABB,Bassin 25 m,80001,Abbeville,200070993,CA de la Baie de Somme,80,Somme,Centres urbains intermédiaires,Piscine,Piscine,Bassin de natation,Bassin mixte de natation,101,CP8V8GMPVN8B,"Individuel(s),famille(s),Clubs sportifs,comités,ligues,fédérations,Scolaires,universités",25.0,15.0,375.0,0.0,3.0,,1.83996,50.11069,Aquagym | Baignade loisirs | Natation course sportive | Natation synchronisée | Water-Polo
E002I800210027,I800210027,Piscine Le Nautilus (structurant),Bassin de natation,80021,Amiens,248000531,CA Amiens Métropole,80,Somme,Grands centres urbains,Piscine,Piscine,Bassin de natation,Bassin ludique de natation,103,,"Individuel(s),famille(s),Clubs sportifs,comités,ligues,fédérations,Scolaires,universités,Autre - association(s) et groupes divers",,,240.0,0.4,1.3,,2.311935,49.91068,Aquagym | Baignade loisirs
E002I800210162,I800210162,Centre Aquatique Amiens Metropole,Bassin Ludique et Détente,80021,Amiens,248000531,CA Amiens Métropole,80,Somme,Grands centres urbains,Piscine,Piscine,Bassin de natation,Bassin ludique de natation,103,,"Individuel(s),famille(s)",,,200.0,0.3,1.2,,2.290417,49.87343,Baignade loisirs
E002I804100008,I804100008,Piscine Aquari'Ham,Bassin ludique,80410,Ham,200070985,CC de l'Est de la Somme,80,Somme,Petites villes,Piscine,Piscine,Bassin de natation,Bassin ludique de natation,103,FGZZZ2431B4T,"Individuel(s),famille(s),Clubs sportifs,comités,ligues,fédérations,Scolaires,universités",25.0,10.0,250.0,0.8,1.8,,3.07598,49.75404,Aquagym | Baignade loisirs
E002I802530014,I802530014,Piscine municipale Centre Nautique Marc Revaux,Terrains de beach volley,80253,Doullens,200070951,CC du Territoire Nord Picardie,80,Somme,Petites villes,Piscine,Piscine,Terrain extérieur de petits jeux collectifs,Terrain de beach-volley,2902,,,,,,,,,2.34517,50.15692,
E002I591630006,I591630006,Piscine Municipale,Piscine Petit bassin Croix,59163,Croix,200093201,Métropole Européenne de Lille,59,Nord,Grands centres urbains,Piscine,Piscine,Bassin de natation,Bassin mixte de natation,101,VEK915R31C3Z,"Individuel(s),famille(s),Clubs sportifs,comités,ligues,fédérations,Scolaires,universités",12.5,12.5,156.3,0.9,1.3,,3.14933,50.67685,Aquagym | Baignade loisirs
E002I591780040,I591780040,PISCINE DES GLACIS,PETIT BAIN,59178,Douai,200044618,CA Douaisis Agglo,59,Nord,Grands centres urbains,Piscine,Piscine,Bassin de natation,Bassin mixte de natation,101,RFGP5J279GC6,"Individuel(s),famille(s),Clubs sportifs,comités,ligues,fédérations,Scolaires,universités,Autre - association(s) et groupes divers",10.0,12.5,125.0,0.5,1.2,,3.08011,50.36233,Aquagym | Baignade loisirs
E002I592910011,I592910011,Piscine André Leduc,Petit Bassin,59291,Hautmont,200043396,CA Maubeuge Val de Sambre,59,Nord,Centres urbains intermédiaires,Piscine,Piscine,Bassin de natation,Bassin mixte de natation,101,GKEWWJFDA5NN,"Individuel(s),famille(s),Clubs sportifs,comités,ligues,fédérations,Scolaires,universités,Autre - association(s) et groupes divers",16.0,12.0,192.0,0.6,1.3,,3.92723,50.24661,Aquagym | Baignade loisirs
E002I600570060,I600570060,Piscine Aldebert Bellier,bassin d'apprentissage,60057,Beauvais,200067999,CA du Beauvaisis,60,Oise,Centres urbains intermédiaires,Piscine,Piscine,Bassin de natation,Bassin mixte de natation,101,,"Individuel(s),famille(s),Clubs sportifs,comités,ligues,fédérations,Scolaires,universités",,,120.0,,,,2.081578,49.423615,Baignade loisirs
E002I591720022,I591720022,Centre Aqualudique Natur&O,Bassin Ludique,59172,Denain,200042190,CA de la Porte du Hainaut,59,Nord,Centres urbains intermédiaires,Piscine,Piscine,Bassin de natation,Bassin ludique de natation,103,QRCZY959RKH3,"Individuel(s),famille(s),Clubs sportifs,comités,ligues,fédérations,Scolaires,universités,Autre - association(s) et groupes divers",15.0,10.5,157.5,0.8,1.3,,3.393402,50.322217,Aquagym | Baignade loisirs
E002I593400009,I593400009,PISCINE PAUL HANCOLAS ET SALLE DEMARTINICOURT,PETIT BASSIN,59340,Leffrinckoucke,245900428,CU de Dunkerque,59,Nord,Grands centres urbains,"Piscine,Complexe sportif",Piscine | Complexe sportif,Bassin de natation,Bassin ludique de natation,103,V5TMZV7QDVKA,"Individuel(s),famille(s),Clubs sportifs,comités,ligues,fédérations,Scolaires,universités",10.0,10.0,100.0,0.6,1.3,,2.43997,51.05464,Aquagym | Baignade loisirs
E002I593780017,I593780017,Piscine Municipale,Petit Bassin,59378,Marcq-en-Barœul,200093201,Métropole Européenne de Lille,59,Nord,Grands centres urbains,Piscine,Piscine,Bassin de natation,Bassin ludique de natation,103,,"Individuel(s),famille(s),Clubs sportifs,comités,ligues,fédérations,Scolaires,universités,Autre - association(s) et groupes divers",12.5,12.5,156.0,0.6,1.2,,3.08708,50.66624,Aquagym | Baignade loisirs
E002I596540006,I596540006,PISCINE MUNICIPALE,PETIT BASSIN,59654,Waziers,200044618,CA Douaisis Agglo,59,Nord,Grands centres urbains,Piscine,Piscine,Bassin de natation,Bassin ludique de natation,103,3KQ8GETCFBV5,"Individuel(s),famille(s),Clubs sportifs,comités,ligues,fédérations,Scolaires,universités,Autre - association(s) et groupes divers",12.0,12.0,156.0,0.6,1.2,,3.10711,50.38553,Aquagym | Natation en eau libre
E002I600570045,I600570045,Aquaspace,Bassin ludique (balnéo),60057,Beauvais,200067999,CA du Beauvaisis,60,Oise,Centres urbains intermédiaires,Piscine,Piscine,Bassin de natation,Bassin ludique de natation,103,2D2RTZT5H2QT,"Individuel(s),famille(s),Clubs sportifs,comités,ligues,fédérations,Scolaires,universités,Autre - association(s) et groupes divers",,,120.0,,,,2.094182,49.451773,Baignade loisirs
E002I591830058,I591830058,PISCINE PAUL ASSEMAN,Bassin 25*21,59183,Dunkerque,245900428,CU de Dunkerque,59,Nord,Grands centres urbains,Piscine,Piscine,Bassin de natation,Bassin sportif de natation,102,1QRWDV52174Z,"Individuel(s),famille(s),Clubs sportifs,comités,ligues,fédérations,Scolaires,universités,Autre - association(s) et groupes divers",25.0,21.0,525.0,1.3,1.9,,2.38636,51.04782,Aquagym | Baignade loisirs | Natation course sportive
E002I592950020,I592950020,Piscine intercommunale d'Hazebrouck,Petit Bassin,59295,Hazebrouck,200040947,CC de Flandre Intérieure,59,Nord,Centres urbains intermédiaires,Piscine,Piscine,Bassin de natation,Bassin sportif de natation,102,9SY2RNRMXQ2C,"Individuel(s),famille(s),Clubs sportifs,comités,ligues,fédérations,Scolaires,universités,Autre - association(s) et groupes divers",12.5,10.0,125.0,0.2,1.0,,2.539462,50.719772,Aquagym | Baignade loisirs
E002I593500093,I593500093,PISCINE MUNICIPALE/59355/LOMME,PISCINE MUNICIPALE,59350,Lille,200093201,Métropole Européenne de Lille,59,Nord,Grands centres urbains,Piscine,Piscine,Bassin de natation,Bassin sportif de natation,102,XNGFA39SFAZB,"Individuel(s),famille(s),Clubs sportifs,comités,ligues,fédérations,Scolaires,universités,Autre - association(s) et groupes divers",25.0,15.0,375.0,1.2,2.0,,3.01476,50.64371,Aquagym | Baignade loisirs | Natation course sportive | Natation synchronisée | Plongée subaquatique (Plongée libre) | Triathlon
E002I595270004,I595270004,"Complexe Piscine, volley",SALLE DUCROCQ,59527,Saint-André-lez-Lille,200093201,Métropole Européenne de Lille,59,Nord,Grands centres urbains,Piscine,Piscine,Salle ou terrain spécialisé,Salle de volley-ball,2113,,"Clubs sportifs,comités,ligues,fédérations,Scolaires,universités",,,,,,,3.04971,50.65867,Volley-ball / Volley-ball de plage (beach-volley) / Green-Volley
E002I601040007,I601040007,CENTRE NAUTIQUE PHILIPPE LOISEL - KALAMOS,Bassin de 25 M,60104,Breteuil,200068005,CC de l'Oise Picarde,60,Oise,Bourgs ruraux,Piscine,Piscine,Bassin de natation,Bassin sportif de natation,102,,"Individuel(s),famille(s),Scolaires,universités",25.0,12.5,312.5,1.5,2.0,,2.30057,49.6355,Natation course sportive
E002I620410045,I620410045,PISCINE ELIE DESBIN,Bassin Ludique,62041,Arras,200033579,CU d'Arras,62,Pas-de-Calais,Grands centres urbains,Piscine,Piscine,Bassin de natation,Bassin sportif de natation,102,FVQ6SY4SMJQ1,"Individuel(s),famille(s),Clubs sportifs,comités,ligues,fédérations,Scolaires,universités",12.0,10.0,120.0,0.5,1.1,,2.79366,50.279651,Baignade loisirs
E002I621780006,I621780006,Piscine Art Déco,Bassin de 33m (n°1),62178,Bruay-la-Buissière,200072460,"CA de Béthune-Bruay, Artois-Lys Romane",62,Pas-de-Calais,Centres urbains intermédiaires,Piscine,Piscine,Bassin de natation,Bassin sportif de natation,102,,"Individuel(s),famille(s),Autre - association(s) et groupes divers",33.0,12.5,412.5,,,,2.54114,50.47277,Aquagym | Baignade loisirs | Natation course sportive
E002I601590027,I601590027,Plaine des sports Zac Mercieres,Pas de tir à l'arc intérieur,60159,Compiègne,200067965,CA de la Région de Compiègne et de la Basse Automne,60,Oise,Centres urbains intermédiaires,"Complexe sportif,Piscine,Patinoire",Complexe sportif | Piscine | Patinoire,Pas de tir,Pas de tir à l'arc,1401,,"Clubs sportifs,comités,ligues,fédérations,Scolaires,universités",,,,,,,2.7838,49.38704,Tir à l'arc
E002I601590032,I601590032,PISCINE HIVER AVENUE D'HUY,Grand bassin de natation,60159,Compiègne,200067965,CA de la Région de Compiègne et de la Basse Automne,60,Oise,Centres urbains intermédiaires,Piscine,Piscine,Bassin de natation,Bassin mixte de natation,101,ZXBVCHCWGJMC,"Individuel(s),famille(s),Clubs sportifs,comités,ligues,fédérations,Scolaires,universités,Autre - association(s) et groupes divers",25.0,13.0,325.0,2.0,3.0,,2.81726,49.40158,Baignade loisirs | Natation course sportive | Water-Polo
E002I602820009,I602820009,PISCINE AQUALIS,Bassin sportif intérieure,60282,Gouvieux,246000764,CC de l'Aire Cantilienne,60,Oise,Ceintures urbaines,Piscine,Piscine,Bassin de natation,Bassin ludique de natation,103,,"Individuel(s),famille(s),Scolaires,universités,Autre - association(s) et groupes divers",25.0,10.0,250.0,1.2,1.8,,2.43468,49.18966,Baignade loisirs
E002I628260004,I628260004,CENTRE TENNISTIQUE PIERRE DE COUBERTIN,Terrain de Tennis n°1,62826,Le Touquet-Paris-Plage,200069029,CA des Deux Baies en Montreuillois,62,Pas-de-Calais,Ceintures urbaines,"Complexe sportif,Piscine",Complexe sportif | Piscine,Court de tennis,Court de tennis,501,,"Individuel(s),famille(s),Clubs sportifs,comités,ligues,fédérations,Scolaires,universités,Autre - association(s) et groupes divers",,,,,,,1.59738,50.518668,Tennis
E002I625100041,I625100041,Espace aquatique et de remise en forme NAUTICAA,Salle de musculation/cardio,62510,Liévin,246200364,CA de Lens - Liévin,62,Pas-de-Calais,Grands centres urbains,Piscine,Piscine,Equipement d'activités de forme et de santé,Salle de musculation/cardiotraining,802,F8QHKT486WFE,"Individuel(s),famille(s)",,,,,,,2.771494,50.416872,Activités de forme et de santé | Musculation
E002I621930039,I621930039,Complexe Icéo,Bassin sportif,62193,Calais,200090751,CA Grand Calais Terres et Mers,62,Pas-de-Calais,Grands centres urbains,"Complexe sportif,Piscine,Patinoire",Complexe sportif | Piscine | Patinoire,Bassin de natation,Bassin sportif de natation,102,EJNAS4SPSAFT,"Individuel(s),famille(s),Clubs sportifs,comités,ligues,fédérations,Scolaires,universités",25.0,10.0,250.0,0.8,1.8,,1.89623,50.95616,Baignade loisirs | Natation course sportive
E002I625340009,I625340009,Piscine Intercommunale de Lumbres,Petit Bassin,62534,Lumbres,246201016,CC du Pays de Lumbres,62,Pas-de-Calais,Bourgs ruraux,Piscine,Piscine,Bassin de natation,Bassin sportif de natation,102,CZCWAW4881ZP,"Individuel(s),famille(s),Clubs sportifs,comités,ligues,fédérations,Scolaires,universités",15.0,15.0,225.0,0.1,0.8,,2.130071,50.708451,Aquagym | Baignade loisirs
E002I627580010,I627580010,Hélicéa,BASSIN DE NATATION,62758,Saint-Martin-Boulogne,246200729,CA du Boulonnais,62,Pas-de-Calais,Grands centres urbains,"Complexe sportif,Piscine,Patinoire",Complexe sportif | Piscine | Patinoire,Bassin de natation,Bassin sportif de natation,102,PPWF5ZKTKV2C,"Individuel(s),famille(s),Clubs sportifs,comités,ligues,fédérations,Scolaires,universités",25.0,26.0,650.0,1.3,3.4,,1.64395,50.731,Natation course sportive | Natation en eau libre
E002I625490001,I625490001,Aquatic & Bowling Center de l'Hesdinois,Bassin ludique,62549,Marconne,200044030,CC des 7 Vallées,62,Pas-de-Calais,Petites villes,Piscine,Piscine,Bassin de natation,Bassin ludique de natation,103,,"Individuel(s),famille(s),Scolaires,universités,Autre - association(s) et groupes divers",15.0,4.0,60.0,0.8,1.4,,2.029365,50.367088,Baignade loisirs
E002I626430016,I626430016,PISCINE INTERCOMMUNAL OCEANE,Petit bassin ludique,62643,Outreau,246200729,CA du Boulonnais,62,Pas-de-Calais,Grands centres urbains,Piscine,Piscine,Bassin de natation,Bassin ludique de natation,103,,"Individuel(s),famille(s),Clubs sportifs,comités,ligues,fédérations,Scolaires,universités",,,150.0,0.2,1.3,,1.584418,50.70488,Aquagym | Baignade loisirs
E002I627670011,I627670011,Piscine Municipale,Bassin ludique,62767,Saint-Pol-sur-Ternoise,200069672,CC du Ternois,62,Pas-de-Calais,Petites villes,Piscine,Piscine,Bassin de natation,Bassin ludique de natation,103,,"Individuel(s),famille(s)",10.0,10.0,100.0,0.2,1.0,,2.32205,50.37775,Baignade loisirs
E004I020370001,I020370001,Complexe sportif,Terrain de football entrainement,02037,Aulnois-sous-Laon,200043495,CA du Pays de Laon,02,Aisne,Bourgs ruraux,"Complexe sportif,Piscine",Complexe sportif | Piscine,Terrain de grands jeux,Terrain de football,2802,,"Clubs sportifs,comités,ligues,fédérations",,,,,,,3.6124,49.60574,Football / Football en salle (Futsal)
E004I020710003,I020710003,"Camping ""La Croix du vieux Pont",Etangs et Rivière,02071,Berny-Rivière,200071991,CC Retz-en-Valois,02,Aisne,Rural à habitat dispersé,Piscine,Piscine,Site d'activités aquatiques et nautiques,Site de pêche,2420,,,,,,,,,3.128348,49.406191,Canoë de randonnée | Pêche au coup en eau douce
E004I026910035,I026910035,Base Urbaine de Loisirs de Saint Quentin,Salle Fitness,02691,Saint-Quentin,200071892,CA du Saint-Quentinois,02,Aisne,Centres urbains intermédiaires,"Complexe sportif,Piscine,Patinoire",Complexe sportif | Piscine | Patinoire,Equipement d'activités de forme et de santé,Salle de cours collectifs,801,NNH171HDB4CR,"Individuel(s),famille(s)",,,,,,,3.28562,49.83933,Activités de forme et de santé | Gymnastique Aérobic
E004I027200001,I027200001,Espace sportif - Centre aquatique Rêvéo,Salle de musculation,02720,Sissonne,240200576,CC de la Champagne Picarde,02,Aisne,Bourgs ruraux,"Complexe sportif,Piscine",Complexe sportif | Piscine,Equipement d'activités de forme et de santé,Salle de musculation/cardiotraining,802,3YFJW8RK28YF,"Individuel(s),famille(s),Clubs sportifs,comités,ligues,fédérations,Autre - association(s) et groupes divers",,,,,,,3.8984,49.5666,Musculation
E003I800010025,I800010025,Piscine : AQU'ABB,Bassin 50 m découvrable,80001,Abbeville,200070993,CA de la Baie de Somme,80,Somme,Centres urbains intermédiaires,Piscine,Piscine,Bassin de natation,Bassin mixte de natation,101,,"Individuel(s),famille(s)",50.0,21.0,1050.0,2.0,2.0,,1.840918,50.110685,Baignade loisirs | Natation course sportive | Natation synchronisée | Plongée subaquatique (Plongée libre) | Triathlon | Water-Polo
E003I805700001,I805700001,Centre aquatique Alméo,Bassin de réception toboggan,80570,Moreuil,200070969,CC Avre Luce Noye,80,Somme,Bourgs ruraux,Piscine,Piscine,Bassin de natation,Bassin de réception de toboggan,106,KHW35W4AGF2D,"Individuel(s),famille(s),Scolaires,universités,Autre - association(s) et groupes divers",6.3,6.9,43.0,0.2,0.2,,2.49116,49.7673,Baignade loisirs
E003I806200031,I806200031,Piscine Tournesol,Terrain de badminton,80620,Péronne,200037059,CC de la Haute Somme (Combles - Péronne - Roisel),80,Somme,Petites villes,Piscine,Piscine,Salle ou terrain spécialisé,Salle ou terrain de badminton,2119,,"Individuel(s),famille(s)",,,,,,,2.94464,49.93579,Badminton | Jeu de volant
E004I620480002,I620480002,COMPLEXE BASLY,TERRAIN D ENTRAINEMENT stabilisé,62048,Auchel,200072460,"CA de Béthune-Bruay, Artois-Lys Romane",62,Pas-de-Calais,Centres urbains intermédiaires,"Complexe sportif,Piscine",Complexe sportif | Piscine,Terrain de grands jeux,Terrain de football,2802,,"Clubs sportifs,comités,ligues,fédérations,Scolaires,universités",,,,,,,2.468464,50.506812,Football / Football en salle (Futsal)
E004I621190008,I621190008,CENTRE AQUATIQUE CITE d'O,BASSIN D'APPRENTISSAGE - BASSIN LUDIQUE,62119,Béthune,200072460,"CA de Béthune-Bruay, Artois-Lys Romane",62,Pas-de-Calais,Centres urbains intermédiaires,Piscine,Piscine,Bassin de natation,Bassin mixte de natation,101,ZAE2DKN9F8K4,"Individuel(s),famille(s),Clubs sportifs,comités,ligues,fédérations,Scolaires,universités,Autre - association(s) et groupes divers",35.0,8.5,230.0,0.9,1.5,,2.630925,50.533248,Activités de forme et de santé | Aquagym | Baignade loisirs | Natation course sportive
E004I624980051,I624980051,Aqualens,Salle de fitness,62498,Lens,246200364,CA de Lens - Liévin,62,Pas-de-Calais,Grands centres urbains,Piscine,Piscine,Equipement d'activités de forme et de santé,Salle de cours collectifs,801,,"Individuel(s),famille(s)",,,,,,,2.81883,50.431596,Activités de forme et de santé
E004I625100041,I625100041,Espace aquatique et de remise en forme NAUTICAA,Bassin de réception toboggan,62510,Liévin,246200364,CA de Lens - Liévin,62,Pas-de-Calais,Grands centres urbains,Piscine,Piscine,Bassin de natation,Bassin de réception de toboggan,106,F8QHKT486WFE,"Individuel(s),famille(s),Scolaires,universités",7.0,4.0,28.0,1.1,1.1,,2.771494,50.416872,Baignade loisirs
E004I628260004,I628260004,CENTRE TENNISTIQUE PIERRE DE COUBERTIN,PISCINE DU CENTRE TENNISTIQUE PIERRE DE COUBERTIN,62826,Le Touquet-Paris-Plage,200069029,CA des Deux Baies en Montreuillois,62,Pas-de-Calais,Ceintures urbaines,"Complexe sportif,Piscine",Complexe sportif | Piscine,Bassin de natation,Bassin sportif de natation,102,,"Individuel(s),famille(s),Scolaires,universités",10.0,25.0,250.0,0.9,2.9,,1.596828,50.519111,Natation course sportive
E002I023340006,I023340006,Piscine,Grand Bassin,02334,Fresnoy-le-Grand,240200493,CC du Pays du Vermandois,02,Aisne,Bourgs ruraux,Piscine,Piscine,Bassin de natation,Bassin sportif de natation,102,,"Individuel(s),famille(s),Clubs sportifs,comités,ligues,fédérations,Scolaires,universités,Autre - association(s) et groupes divers",25.0,12.5,312.5,2.0,3.0,,3.43584,49.96573,Baignade loisirs | Natation course sportive
E002I023400001,I023400001,Piscine,Grand bassin,02340,Gauchy,200071892,CA du Saint-Quentinois,02,Aisne,Ceintures urbaines,Piscine,Piscine,Bassin de natation,Bassin mixte de natation,101,BB2C4RPQF8KQ,"Individuel(s),famille(s),Clubs sportifs,comités,ligues,fédérations,Scolaires,universités,Autre - association(s) et groupes divers",25.0,10.0,250.0,1.3,2.1,,3.2914,49.83087,Aquagym | Baignade loisirs | Nage avec palmes | Natation course sportive | Plongée subaquatique (Plongée libre) | Sauvetage en eau plate | Water-Polo
E006I023810011,I023810011,"Espace aquatique ""L'Ile Verte""",Salle Cardiotraining,02381,Hirson,240200600,CC des Trois Rivières,02,Aisne,Petites villes,"Base de plein air et/ou de loisirs,Piscine",Base de plein air et/ou de loisirs | Piscine,Equipement d'activités de forme et de santé,Salle de musculation/cardiotraining,802,,"Individuel(s),famille(s)",,,,,,,4.098482,49.923711,Activités de forme et de santé | Culturisme
E002I596460016,I596460016,PISCINE CENTRE NAUTIQUE CALYPSO,PISCINE GRAND BASSIN CENTRE NAUTIQUE CALYPSO,59646,Wasquehal,200093201,Métropole Européenne de Lille,59,Nord,Grands centres urbains,Piscine,Piscine,Bassin de natation,Bassin sportif de natation,102,4JVG12A14BC9,"Individuel(s),famille(s),Clubs sportifs,comités,ligues,fédérations,Scolaires,universités,Autre - association(s) et groupes divers",25.0,10.0,250.0,0.9,2.1,,3.12989,50.67723,Aquagym | Baignade loisirs | Triathlon
E002I601030008,I601030008,PISCINE INTERCOMMUNALE,Piscine intercommunale (bassin ludique),60103,Bresles,200067999,CA du Beauvaisis,60,Oise,Bourgs ruraux,Piscine,Piscine,Bassin de natation,Bassin ludique de natation,103,7QBB4ETK2YMM,"Individuel(s),famille(s),Clubs sportifs,comités,ligues,fédérations,Scolaires,universités",11.0,9.0,81.0,0.6,1.1,,2.24552,49.40863,Baignade loisirs
E002I601390001,I601390001,PISCINE AQUATHELLE,Bassin ludique,60139,Chambly,200067973,CC Thelloise,60,Oise,Centres urbains intermédiaires,Piscine,Piscine,Bassin de natation,Bassin ludique de natation,103,EKQEG1HVYT8W,"Individuel(s),famille(s)",,,160.0,1.1,1.1,,2.25376,49.1721,Baignade loisirs
E002I602230013,I602230013,CENTRE AQUATIQUE DE LA PLAINE D'ESTREES,Bassin loisirs,60223,Estrées-Saint-Denis,246000897,CC de la Plaine d'Estrées,60,Oise,Bourgs ruraux,Piscine,Piscine,Bassin de natation,Bassin ludique de natation,103,3Q5B4JEKKNHT,"Individuel(s),famille(s),Scolaires,universités,Autre - association(s) et groupes divers",17.0,6.0,36.0,0.3,1.4,,2.64326,49.42945,Baignade loisirs
E002I603950010,I603950010,Piscine des Sablons,Bassin ludique,60395,Méru,246000582,CC des Sablons,60,Oise,Centres urbains intermédiaires,Piscine,Piscine,Bassin de natation,Bassin mixte de natation,101,TD6EZZBMEH7T,"Individuel(s),famille(s),Clubs sportifs,comités,ligues,fédérations,Scolaires,universités",25.0,12.0,144.0,0.8,1.5,,2.14285,49.23699,Baignade loisirs
E002I604710011,I604710011,PISCINE MUNICIPALE PAUL BOUTEFEU,Petit Bassin,60471,Noyon,246000756,CC du Pays Noyonnais,60,Oise,Centres urbains intermédiaires,",Piscine",Piscine,Bassin de natation,Bassin mixte de natation,101,,"Individuel(s),famille(s),Clubs sportifs,comités,ligues,fédérations,Scolaires,universités,Autre - association(s) et groupes divers",10.0,12.0,125.0,0.6,1.2,,2.99585,49.57714,Baignade loisirs
E002I606890002,I606890002,CENTRE DES SPORTS RIMBERLIEU,Manège extérieur,60689,Villers-sur-Coudun,246000855,CC du Pays des Sources,60,Oise,Bourgs ruraux,"Complexe sportif,Piscine",Complexe sportif | Piscine,Equipement équestre,Manège,903,,,,,,,,,2.81321,49.48651,
E002I620140019,I620140019,AQUALYS,Bassin Sportif,62014,Aire-sur-la-Lys,200069037,CA du Pays de Saint-Omer,62,Pas-de-Calais,Petites villes,Piscine,Piscine,Bassin de natation,Bassin sportif de natation,102,BHMSVFXQW6DY,"Individuel(s),famille(s),Clubs sportifs,comités,ligues,fédérations,Scolaires,universités",15.0,25.0,375.0,1.4,2.0,,2.412368,50.633043,Baignade loisirs | Natation course sportive | Natation en eau libre
E002I620400005,I620400005,PISCINE MUNICIPALE,Petit Bassin de Natation,62040,Arques,200069037,CA du Pays de Saint-Omer,62,Pas-de-Calais,Ceintures urbaines,Piscine,Piscine,Bassin de natation,Bassin sportif de natation,102,,"Individuel(s),famille(s),Clubs sportifs,comités,ligues,fédérations,Scolaires,universités",16.0,10.0,160.0,1.0,1.0,,2.2626,50.75452,Aquagym | Baignade loisirs
E002I620410067,I620410067,PISCINE GEORGES DAULLE,Bassin Ludique,62041,Arras,200033579,CU d'Arras,62,Pas-de-Calais,Grands centres urbains,Piscine,Piscine,Bassin de natation,Bassin ludique de natation,103,YR1AQBM3NXX2,"Individuel(s),famille(s),Scolaires,universités",15.0,15.0,225.0,0.7,1.1,,2.74294,50.2975,Baignade loisirs
E002I620480002,I620480002,COMPLEXE BASLY,STADE BASLY,62048,Auchel,200072460,"CA de Béthune-Bruay, Artois-Lys Romane",62,Pas-de-Calais,Centres urbains intermédiaires,"Complexe sportif,Piscine",Complexe sportif | Piscine,Terrain de grands jeux,Terrain mixte,2801,,"Individuel(s),famille(s),Clubs sportifs,comités,ligues,fédérations,Scolaires,universités",,,,,,,2.46782,50.5065,Football / Football en salle (Futsal)
E002I621330012,I621330012,Centre Aquatique Louis Aragon,Bassin d'apprentissage,62133,Billy-Montigny,246200364,CA de Lens - Liévin,62,Pas-de-Calais,Grands centres urbains,Piscine,Piscine,Bassin de natation,Bassin mixte de natation,101,,"Individuel(s),famille(s),Clubs sportifs,comités,ligues,fédérations,Scolaires,universités",12.5,6.0,75.0,0.8,1.2,,2.914188,50.420441,Aquagym | Baignade loisirs
E002I623610002,I623610002,COMPLEXE SIDONIE GUITTARD,PETANQUE FREVENTINE,62361,Frévent,200069672,CC du Ternois,62,Pas-de-Calais,Bourgs ruraux,"Complexe sportif,Piscine",Complexe sportif | Piscine,Boulodrome,Terrain de pétanque,202,,Autre - association(s) et groupes divers,,,,,,,2.29515,50.27585,Pétanque et jeu provencal
E002I624980051,I624980051,Aqualens,Bassin d'apprentissage,62498,Lens,246200364,CA de Lens - Liévin,62,Pas-de-Calais,Grands centres urbains,Piscine,Piscine,Bassin de natation,Bassin mixte de natation,101,,"Individuel(s),famille(s),Clubs sportifs,comités,ligues,fédérations,Scolaires,universités,Autre - association(s) et groupes divers",15.0,25.0,375.0,1.0,2.0,,2.818519,50.431527,Aquagym | Baignade loisirs | Natation course sportive | Plongée subaquatique (Plongée libre) | Water-Polo
E002I626170019,I626170019,Piscine municipale,Bassin d'apprentissage,62617,Nœux-les-Mines,200072460,"CA de Béthune-Bruay, Artois-Lys Romane",62,Pas-de-Calais,Centres urbains intermédiaires,Piscine,Piscine,Bassin de natation,Bassin ludique de natation,103,6BCMXK6C25PG,"Individuel(s),famille(s),Clubs sportifs,comités,ligues,fédérations,Scolaires,universités,Autre - association(s) et groupes divers",20.0,15.0,300.0,0.8,1.2,,2.66996,50.472222,Baignade loisirs
E002I800210059,I800210059,Coliseum,Bassin de réception du toboggan,80021,Amiens,248000531,CA Amiens Métropole,80,Somme,Grands centres urbains,"Complexe sportif,Piscine,Patinoire",Complexe sportif | Piscine | Patinoire,Bassin de natation,Bassin ludique de natation,103,76SPFQM9KSNP,"Individuel(s),famille(s),Clubs sportifs,comités,ligues,fédérations,Scolaires,universités,Autre - association(s) et groupes divers",,,20.0,1.3,1.3,,2.28886,49.89368,Baignade loisirs
E002I590360001,I590360001,Piscine Laurent Swaenepoel,Petit Bassin,59036,Avesnes-sur-Helpe,200043263,CC Cœur de l'Avesnois,59,Nord,Petites villes,Piscine,Piscine,Bassin de natation,Bassin mixte de natation,101,,"Individuel(s),famille(s),Scolaires,universités",12.5,6.0,75.0,0.8,1.3,,3.92245,50.12064,Aquagym
E002I591220022,I591220022,Stade Nautique Liberté,petit bassin,59122,Cambrai,200068500,CA de Cambrai,59,Nord,Centres urbains intermédiaires,Piscine,Piscine,Bassin de natation,Bassin sportif de natation,102,64XH6A4NK3FE,"Individuel(s),famille(s),Clubs sportifs,comités,ligues,fédérations,Scolaires,universités,Autre - association(s) et groupes divers",25.0,6.0,150.0,1.0,1.3,,3.2267,50.1723,Aquagym | Baignade loisirs
E002I591360007,I591360007,Duo Le Cateau,Bassin apprentissage,59136,Le Cateau-Cambrésis,200030633,CA du Caudrésis et du Catésis,59,Nord,Petites villes,Piscine,Piscine,Bassin de natation,Bassin sportif de natation,102,,,,,0.0,,,,3.531953,50.09544,Baignade loisirs
E002I591830087,I591830087,Piscine Georges Guynemer,Bassin ludique,59183,Dunkerque,245900428,CU de Dunkerque,59,Nord,Grands centres urbains,Piscine,Piscine,Bassin de natation,Bassin ludique de natation,103,,"Individuel(s),famille(s),Scolaires,universités",,,397.0,1.3,1.0,,2.32902,51.021923,Aquagym | Baignade loisirs
E002I592050005,I592050005,Piscine Maurice Thorez,Bassin d'apprentissage,59205,Escaudain,200042190,CA de la Porte du Hainaut,59,Nord,Ceintures urbaines,Piscine,Piscine,Bassin de natation,Bassin sportif de natation,102,C244AWDGBAJ4,"Individuel(s),famille(s),Clubs sportifs,comités,ligues,fédérations,Scolaires,universités",10.0,6.0,60.0,0.8,1.0,,3.337655,50.332477,Aquagym | Baignade loisirs
E002I592490005,I592490005,PISCINE MUNICIPALE,TENNIS DE TABLE,59249,Fourmies,200043404,CC du Sud Avesnois,59,Nord,Centres urbains intermédiaires,Piscine,Piscine,Salle ou terrain spécialisé,Salle de tennis de table,2111,,"Clubs sportifs,comités,ligues,fédérations,Scolaires,universités",,,,,,,4.05164,50.01921,Tennis de table
E002I592710025,I592710025,Piscine Léo Lagrange,Petit Bassin,59271,Grande-Synthe,245900428,CU de Dunkerque,59,Nord,Grands centres urbains,Piscine,Piscine,Bassin de natation,Bassin ludique de natation,103,Y4N3G8A377NY,"Individuel(s),famille(s),Clubs sportifs,comités,ligues,fédérations,Scolaires,universités,Autre - association(s) et groupes divers",15.0,12.0,188.0,0.7,1.3,,2.3022,51.01925,Activités de forme et de santé | Aquagym | Baignade loisirs
E002I592790009,I592790009,PISCINE MUNICIPALE PHILIPPE CROIZON,GRAND BAIN,59279,Halluin,200093201,Métropole Européenne de Lille,59,Nord,Grands centres urbains,Piscine,Piscine,Bassin de natation,Bassin sportif de natation,102,,"Individuel(s),famille(s),Clubs sportifs,comités,ligues,fédérations,Scolaires,universités,Autre - association(s) et groupes divers",25.0,10.0,250.0,0.8,2.1,,3.12932,50.77745,Aquagym | Baignade loisirs | Nage avec palmes | Natation course sportive | Plongée en apnée | Plongée subaquatique (Plongée libre)
E002I593680009,I593680009,PISCINE MUNICIPALE,GRAND BASSIN,59368,La Madeleine,200093201,Métropole Européenne de Lille,59,Nord,Grands centres urbains,Piscine,Piscine,Bassin de natation,Bassin sportif de natation,102,XRTT1AVG22BF,"Individuel(s),famille(s),Clubs sportifs,comités,ligues,fédérations,Scolaires,universités",25.0,15.0,375.0,1.8,2.0,,3.073087,50.654739,Aquagym | Baignade loisirs | Natation course sportive | Natation synchronisée | Water-Polo
E002I595260001,I595260001,Centre Aquatique intercommunal de Saint-Amand-les-Eaux,Petit bassin,59526,Saint-Amand-les-Eaux,200042190,CA de la Porte du Hainaut,59,Nord,Centres urbains intermédiaires,Piscine,Piscine,Bassin de natation,Bassin ludique de natation,103,,"Individuel(s),famille(s),Clubs sportifs,comités,ligues,fédérations,Scolaires,universités",,,350.0,0.9,1.2,,3.434574,50.443885,Aquagym | Baignade loisirs
E002I595710003,I595710003,PISCINE,GRAND BASSIN,59571,Solesmes,245901038,CC du Pays Solesmois,59,Nord,Bourgs ruraux,Piscine,Piscine,Bassin de natation,Bassin sportif de natation,102,,"Individuel(s),famille(s),Scolaires,universités",25.0,12.5,312.5,2.0,2.0,,3.49841,50.19028,Aquagym | Baignade loisirs | Natation course sportive
E002I595990002,I595990002,Tourcoing les Bains,Bassin ludique,59599,Tourcoing,200093201,Métropole Européenne de Lille,59,Nord,Grands centres urbains,Piscine,Piscine,Bassin de natation,Bassin ludique de natation,103,GGVTK9QR2E9Q,"Individuel(s),famille(s)",12.0,6.0,56.0,0.1,1.0,,3.160983,50.724075,Baignade loisirs
E001I800010025,I800010025,Piscine : AQU'ABB,Bassin ludique 20 m,80001,Abbeville,200070993,CA de la Baie de Somme,80,Somme,Centres urbains intermédiaires,Piscine,Piscine,Bassin de natation,Bassin ludique de natation,103,CP8V8GMPVN8B,"Individuel(s),famille(s),Scolaires,universités,Autre - association(s) et groupes divers",20.0,10.0,200.0,0.0,1.3,,1.83996,50.11069,Baignade loisirs
E001I800160008,I800160008,Piscine Caneton,Piscine Caneton,80016,Albert,248000747,CC du Pays du Coquelicot,80,Somme,Centres urbains intermédiaires,Piscine,Piscine,Bassin de natation,Bassin mixte de natation,101,,"Individuel(s),famille(s),Clubs sportifs,comités,ligues,fédérations,Scolaires,universités,Autre - association(s) et groupes divers",25.0,10.0,250.0,0.9,2.1,,2.65671,50.0002,Baignade loisirs | Nage avec palmes | Natation course sportive | Plongée subaquatique (Plongée libre)
E001I800210162,I800210162,Centre Aquatique Amiens Metropole,BASSIN SPORTIF 25M,80021,Amiens,248000531,CA Amiens Métropole,80,Somme,Grands centres urbains,Piscine,Piscine,Bassin de natation,Bassin sportif de natation,102,,"Individuel(s),famille(s),Clubs sportifs,comités,ligues,fédérations,Scolaires,universités",25.0,21.0,400.0,0.0,2.0,,2.290417,49.87343,Baignade loisirs
E001I806200002,I806200002,CENTRE AQUATIQUE,CENTRE AQUATIQUE,80620,Péronne,200037059,CC de la Haute Somme (Combles - Péronne - Roisel),80,Somme,Petites villes,Piscine,Piscine,Bassin de natation,Bassin sportif de natation,102,,"Individuel(s),famille(s),Clubs sportifs,comités,ligues,fédérations,Scolaires,universités,Autre - association(s) et groupes divers",25.0,15.0,375.0,1.4,2.5,,2.94,49.93,Baignade loisirs | Natation course sportive | Natation synchronisée
E002I602860002,I602860002,PISCINE OCEANE,Bassin ludique,60286,Grandvilliers,246000848,CC de la Picardie Verte,60,Oise,Bourgs ruraux,Piscine,Piscine,Bassin de natation,Bassin ludique de natation,103,FBATW8KFVA3C,"Individuel(s),famille(s),Clubs sportifs,comités,ligues,fédérations,Scolaires,universités,Autre - association(s) et groupes divers",15.0,15.0,225.0,0.6,1.2,,1.94488,49.6621,Baignade loisirs
E002I621190008,I621190008,CENTRE AQUATIQUE CITE d'O,BASSIN 50M,62119,Béthune,200072460,"CA de Béthune-Bruay, Artois-Lys Romane",62,Pas-de-Calais,Centres urbains intermédiaires,Piscine,Piscine,Bassin de natation,Bassin sportif de natation,102,ZAE2DKN9F8K4,"Individuel(s),famille(s),Clubs sportifs,comités,ligues,fédérations,Scolaires,universités,Autre - association(s) et groupes divers",50.0,20.0,1000.0,2.3,2.5,,2.630925,50.533248,Baignade loisirs | Natation course sportive | Plongée subaquatique (Plongée libre)
E002I621600029,I621600029,PISCINE MUNICIPALE,GRAND BASSIN,62160,Boulogne-sur-Mer,246200729,CA du Boulonnais,62,Pas-de-Calais,Grands centres urbains,Piscine,Piscine,Bassin de natation,Bassin sportif de natation,102,,"Individuel(s),famille(s),Clubs sportifs,comités,ligues,fédérations,Scolaires,universités",25.0,12.0,300.0,1.6,3.0,,1.59438,50.73112,Baignade loisirs | Natation course sportive | Natation synchronisée
E002I621930005,I621930005,PISCINE EMILE RANSON,PETIT BASSIN,62193,Calais,200090751,CA Grand Calais Terres et Mers,62,Pas-de-Calais,Grands centres urbains,Piscine,Piscine,Bassin de natation,Bassin sportif de natation,102,G9Z7DR8MEA8W,"Individuel(s),famille(s),Clubs sportifs,comités,ligues,fédérations,Scolaires,universités",15.0,13.0,195.0,0.6,1.2,,1.847363,50.955346,Aquagym | Baignade loisirs
E002I622890007,I622890007,PISCINE MUNICIPALE,PETIT BASSIN,62289,Écuires,200069029,CA des Deux Baies en Montreuillois,62,Pas-de-Calais,Rural à habitat dispersé,Piscine,Piscine,Bassin de natation,Bassin mixte de natation,101,,"Individuel(s),famille(s),Clubs sportifs,comités,ligues,fédérations,Scolaires,universités",12.5,10.0,125.0,0.8,1.0,,1.75757,50.4535,Aquagym | Baignade loisirs | Natation course sportive
E002I624270010,I624270010,Piscine Municipale Jean Jacques MALINA,Grand bain,62427,Hénin-Beaumont,246200299,CA d'Hénin-Carvin,62,Pas-de-Calais,Grands centres urbains,Piscine,Piscine,Bassin de natation,Bassin sportif de natation,102,EE9E79R4E48G,"Individuel(s),famille(s),Clubs sportifs,comités,ligues,fédérations,Scolaires,universités,Autre - association(s) et groupes divers",25.0,15.0,375.0,1.4,3.0,6.0,2.945833,50.423373,Aquagym | Baignade loisirs | Natation course sportive | Natation en eau libre
E002I624430002,I624430002,INSTALLATIONS SPORTIVES complexe vivre,PISCINE MUNICIPALE,62443,Hersin-Coupigny,200072460,"CA de Béthune-Bruay, Artois-Lys Romane",62,Pas-de-Calais,Ceintures urbaines,Piscine,Piscine,Bassin de natation,Bassin sportif de natation,102,,"Individuel(s),famille(s),Clubs sportifs,comités,ligues,fédérations,Scolaires,universités",25.0,10.0,250.0,0.9,2.1,4.0,2.645994,50.447701,Baignade loisirs | Natation course sportive | Natation en eau libre
E002I624570001,I624570001,PARC DEPARTEMENTAL DE NATURE ET DE LOISIRS D'OLHAIN,Court de Tennis,62356,Fresnicourt-le-Dolmen,200072460,"CA de Béthune-Bruay, Artois-Lys Romane",62,Pas-de-Calais,Rural à habitat dispersé,"Base de plein air et/ou de loisirs,Piscine",Base de plein air et/ou de loisirs | Piscine,Court de tennis,Court de tennis,501,,"Individuel(s),famille(s),Clubs sportifs,comités,ligues,fédérations,Scolaires,universités,Autre - association(s) et groupes divers",,,,,,,2.584703,50.437267,Tennis
E002I625060002,I625060002,SALLE DE JEUX ET TERRAINS DE PETANQUE,terrains de pétanque,62506,Licques,200072478,CC Pays d'Opale,62,Pas-de-Calais,Bourgs ruraux,Piscine,Piscine,Boulodrome,Terrain de pétanque,202,,"Individuel(s),famille(s)",,,,,,,1.948224,50.779676,Pétanque et jeu provencal
E002I625250002,I625250002,SCENEO,Bassin ludique,62525,Longuenesse,200069037,CA du Pays de Saint-Omer,62,Pas-de-Calais,Centres urbains intermédiaires,Piscine,Piscine,Bassin de natation,Bassin ludique de natation,103,7B62Q3X4J183,"Individuel(s),famille(s),Clubs sportifs,comités,ligues,fédérations,Scolaires,universités,Autre - association(s) et groupes divers",,,278.0,,,,2.27057,50.74055,Baignade loisirs
E002I628650007,I628650007,Centre aquatique Aquatis,Bassin ludique,62865,Vitry-en-Artois,200044048,CC Osartis Marquion,62,Pas-de-Calais,Ceintures urbaines,Piscine,Piscine,Bassin de natation,Bassin ludique de natation,103,,"Individuel(s),famille(s)",,,150.0,0.7,1.4,,2.980227,50.332866,Aquagym | Baignade loisirs
E001I590080007,I590080007,piscine municipale,bassin,59008,Aniche,245901152,CC Cœur d'Ostrevent,59,Nord,Centres urbains intermédiaires,Piscine,Piscine,Bassin de natation,Bassin sportif de natation,102,,"Individuel(s),famille(s),Clubs sportifs,comités,ligues,fédérations,Scolaires,universités,Autre - association(s) et groupes divers",25.0,10.0,250.0,0.9,2.1,,3.25421,50.32551,Baignade loisirs | Natation course sportive
E001I590090057,I590090057,PISCINE DU TRIOLO,GRAND BASSIN,59009,Villeneuve-d'Ascq,200093201,Métropole Européenne de Lille,59,Nord,Grands centres urbains,Piscine,Piscine,Bassin de natation,Bassin sportif de natation,102,ENSYV8BKBK35,"Individuel(s),famille(s),Clubs sportifs,comités,ligues,fédérations,Scolaires,universités,Autre - association(s) et groupes divers",25.0,15.0,375.0,1.8,3.5,,3.14768,50.61369,Baignade loisirs | Natation course sportive | Natation en eau libre | Plongée subaquatique (Plongée libre) | Water-Polo
E001I590170009,I590170009,Centre aquatique Calyssia,Grand bassin,59017,Armentières,200093201,Métropole Européenne de Lille,59,Nord,Centres urbains intermédiaires,Piscine,Piscine,Bassin de natation,Bassin sportif de natation,102,EG3MCZ8DCK7A,"Individuel(s),famille(s),Clubs sportifs,comités,ligues,fédérations,Scolaires,universités",25.0,23.0,575.0,2.0,2.0,,2.86765,50.68859,Baignade loisirs | Natation course sportive
E001I590360001,I590360001,Piscine Laurent Swaenepoel,Grand Bassin,59036,Avesnes-sur-Helpe,200043263,CC Cœur de l'Avesnois,59,Nord,Petites villes,Piscine,Piscine,Bassin de natation,Bassin sportif de natation,102,,"Individuel(s),famille(s),Clubs sportifs,comités,ligues,fédérations,Scolaires,universités",25.0,12.5,312.5,1.8,3.2,,3.92245,50.12064,Aquagym | Baignade loisirs | Natation course sportive | Plongée subaquatique (Plongée libre)
E001I590940007,I590940007,Piscine Municipale,piscine municipale,59094,Bourbourg,245900428,CU de Dunkerque,59,Nord,Petites villes,Piscine,Piscine,Bassin de natation,Bassin sportif de natation,102,,"Individuel(s),famille(s),Clubs sportifs,comités,ligues,fédérations,Scolaires,universités,Autre - association(s) et groupes divers",25.0,10.0,250.0,0.8,2.0,,2.19561,50.94087,Aquagym | Baignade loisirs | Natation course sportive | Water-Polo
E001I591070012,I591070012,Piscine Municipale,bassin,59107,Bray-Dunes,245900428,CU de Dunkerque,59,Nord,Petites villes,Piscine,Piscine,Bassin de natation,Bassin sportif de natation,102,SVJ7QGNREAT3,"Individuel(s),famille(s),Clubs sportifs,comités,ligues,fédérations,Scolaires,universités",25.0,10.0,250.0,0.8,2.0,,2.51452,51.07227,Baignade loisirs | Natation course sportive | Triathlon
E001I591390015,I591390015,Espace Nautique Intercommunal (ENI),Bassin sportif,59139,Caudry,200030633,CA du Caudrésis et du Catésis,59,Nord,Centres urbains intermédiaires,Piscine,Piscine,Bassin de natation,Bassin sportif de natation,102,DRERWZMSTKC9,"Individuel(s),famille(s),Clubs sportifs,comités,ligues,fédérations,Scolaires,universités,Autre - association(s) et groupes divers",25.0,12.0,300.0,2.0,2.0,,3.39598,50.12839,Baignade loisirs | Natation course sportive
E001I591830041,I591830041,BASSIN D INITIATION DELEERSNYDER,PETIT BASSIN,59183,Dunkerque,245900428,CU de Dunkerque,59,Nord,Grands centres urbains,Piscine,Piscine,Bassin de natation,Bassin ludique de natation,103,,"Scolaires,universités",12.0,6.0,36.0,0.7,1.3,,2.40012,51.04789,Baignade loisirs
E001I591830087,I591830087,Piscine Georges Guynemer,Grand bassin,59183,Dunkerque,245900428,CU de Dunkerque,59,Nord,Grands centres urbains,Piscine,Piscine,Bassin de natation,Bassin sportif de natation,102,,"Individuel(s),famille(s),Scolaires,universités",25.0,25.0,625.0,1.8,1.8,,2.32902,51.021923,Baignade loisirs | Natation en eau libre
E001I592990008,I592990008,PISCINE DES TROIS VILLES,PISCINE DES TROIS VILLES,59299,Hem,200093201,Métropole Européenne de Lille,59,Nord,Grands centres urbains,Piscine,Piscine,Bassin de natation,Bassin sportif de natation,102,BRB4XNBXQE3N,"Individuel(s),famille(s),Clubs sportifs,comités,ligues,fédérations",25.0,10.0,250.0,0.8,2.0,,3.19829,50.67109,Activités de forme et de santé | Aquagym | Baignade loisirs | Plongée subaquatique (Plongée libre)
E001I593030010,I593030010,Piscine des WEPPES,Bassin sportif de 25 m,59303,Herlies,200093201,Métropole Européenne de Lille,59,Nord,Ceintures urbaines,Piscine,Piscine,Bassin de natation,Bassin sportif de natation,102,,"Individuel(s),famille(s),Clubs sportifs,comités,ligues,fédérations,Scolaires,universités",25.0,15.0,375.0,1.3,2.0,,2.854375,50.576812,Baignade loisirs | Natation course sportive
E001I593500021,I593500021,Piscine plein Sud,Piscine Plein Sud,59350,Lille,200093201,Métropole Européenne de Lille,59,Nord,Grands centres urbains,Piscine,Piscine,Bassin de natation,Bassin sportif de natation,102,5KZ5C98PVVFP,"Individuel(s),famille(s),Clubs sportifs,comités,ligues,fédérations,Scolaires,universités,Autre - association(s) et groupes divers",25.0,15.0,375.0,2.0,2.0,,3.0413,50.6074,Aquagym | Baignade loisirs | Natation course sportive | Natation synchronisée | Water-Polo
E001I593500093,I593500093,PISCINE MUNICIPALE/59355/LOMME,STAND DE TIR,59350,Lille,200093201,Métropole Européenne de Lille,59,Nord,Grands centres urbains,Piscine,Piscine,Pas de tir,Pas de tir à la cible,1402,RNGEPBGHX73T,"Individuel(s),famille(s),Clubs sportifs,comités,ligues,fédérations",,,,,,,3.01451,50.64367,Arbalète / Armes anciennes / Bench rest / Silhouettes métalliques / Tir sportif de vitesse | Carabine (hors 300m) / Pistolet / Plateaux
E001I595120028,I595120028,Centre Nautique THALASSA,REMISE EN FORME,59512,Roubaix,200093201,Métropole Européenne de Lille,59,Nord,Grands centres urbains,Piscine,Piscine,Equipement d'activités de forme et de santé,Salle de cours collectifs,801,,"Individuel(s),famille(s)",,,,,,,3.16326,50.69134,Activités de forme et de santé
E001I595270004,I595270004,"Complexe Piscine, volley",PLATEAU DUCROCQ,59527,Saint-André-lez-Lille,200093201,Métropole Européenne de Lille,59,Nord,Grands centres urbains,Piscine,Piscine,Multisports/City-stades,Multisports/City-stades,1701,,"Individuel(s),famille(s)",,,,,,,3.05097,50.65892,Basket-Ball | Handball / Mini hand / Handball de plage | Tennis
E001I595440006,I595440006,PISCINE MUNICIPALE,GRAND BASSIN,59544,Saint-Saulve,245901160,CA Valenciennes Métropole,59,Nord,Grands centres urbains,Piscine,Piscine,Bassin de natation,Bassin sportif de natation,102,817JBS71ZYCJ,"Individuel(s),famille(s),Clubs sportifs,comités,ligues,fédérations,Autre - association(s) et groupes divers",25.0,10.0,250.0,0.9,2.0,,3.55909,50.36496,Baignade loisirs | Natation course sportive | Plongée subaquatique (Plongée libre)
E001I595690010,I595690010,PISCINE TOURNESOL,Bassin de natation,59569,Sin-le-Noble,200044618,CA Douaisis Agglo,59,Nord,Grands centres urbains,Piscine,Piscine,Bassin de natation,Bassin sportif de natation,102,,"Individuel(s),famille(s),Clubs sportifs,comités,ligues,fédérations,Scolaires,universités",25.0,10.0,250.0,0.8,2.0,,3.11689,50.36169,Aquagym | Baignade loisirs | Natation course sportive | Water-Polo
E001I595690016,I595690016,Sourcéane,Bassin sportif,59569,Sin-le-Noble,200044618,CA Douaisis Agglo,59,Nord,Grands centres urbains,Piscine,Piscine,Bassin de natation,Bassin sportif de natation,102,S76X82BZZKYT,,33.0,25.0,825.0,,,,3.100263,50.349606,Natation course sportive
E001I595710003,I595710003,PISCINE,PETIT BASSIN,59571,Solesmes,245901038,CC du Pays Solesmois,59,Nord,Bourgs ruraux,Piscine,Piscine,Bassin de natation,Bassin mixte de natation,101,,"Individuel(s),famille(s),Scolaires,universités",12.0,12.0,156.0,0.9,1.5,,3.49841,50.19028,Aquagym | Baignade loisirs | Natation course sportive
E001I595990002,I595990002,Tourcoing les Bains,Bassin Sportf,59599,Tourcoing,200093201,Métropole Européenne de Lille,59,Nord,Grands centres urbains,Piscine,Piscine,Bassin de natation,Bassin sportif de natation,102,Z472FH2KCM6B,"Individuel(s),famille(s),Clubs sportifs,comités,ligues,fédérations,Scolaires,universités",25.0,21.0,525.0,2.0,2.0,,3.1606,50.72425,Aquagym | Baignade loisirs | Natation course sportive | Water-Polo
E001I600570060,I600570060,Piscine Aldebert Bellier,Piscine A.Bellier,60057,Beauvais,200067999,CA du Beauvaisis,60,Oise,Centres urbains intermédiaires,Piscine,Piscine,Bassin de natation,Bassin mixte de natation,101,,"Individuel(s),famille(s),Clubs sportifs,comités,ligues,fédérations,Scolaires,universités,Autre - association(s) et groupes divers",25.0,12.5,312.5,0.8,2.0,,2.07907,49.42483,Baignade loisirs | Natation course sportive
E001I601030008,I601030008,PISCINE INTERCOMMUNALE,Piscine intercommunale,60103,Bresles,200067999,CA du Beauvaisis,60,Oise,Bourgs ruraux,Piscine,Piscine,Bassin de natation,Bassin sportif de natation,102,7QBB4ETK2YMM,"Individuel(s),famille(s),Clubs sportifs,comités,ligues,fédérations,Scolaires,universités",25.0,12.5,312.5,1.2,1.8,,2.24552,49.40863,Baignade loisirs | Natation course sportive
E001I601040007,I601040007,CENTRE NAUTIQUE PHILIPPE LOISEL - KALAMOS,Salle de remise en forme,60104,Breteuil,200068005,CC de l'Oise Picarde,60,Oise,Bourgs ruraux,Piscine,Piscine,Equipement d'activités de forme et de santé,Salle de musculation/cardiotraining,802,,"Individuel(s),famille(s)",,,,,,,2.30057,49.6355,Musculation
E001I601390001,I601390001,PISCINE AQUATHELLE,Bassin sportif,60139,Chambly,200067973,CC Thelloise,60,Oise,Centres urbains intermédiaires,Piscine,Piscine,Bassin de natation,Bassin sportif de natation,102,EKQEG1HVYT8W,"Individuel(s),famille(s),Clubs sportifs,comités,ligues,fédérations,Scolaires,universités,Autre - association(s) et groupes divers",25.0,10.0,250.0,1.1,2.2,,2.25376,49.1721,Natation course sportive | Plongée subaquatique (Plongée libre)
E001I602230013,I602230013,CENTRE AQUATIQUE DE LA PLAINE D'ESTREES,Bassin sportif,60223,Estrées-Saint-Denis,246000897,CC de la Plaine d'Estrées,60,Oise,Bourgs ruraux,Piscine,Piscine,Bassin de natation,Bassin sportif de natation,102,3Q5B4JEKKNHT,"Individuel(s),famille(s),Scolaires,universités,Autre - association(s) et groupes divers",25.0,8.0,200.0,0.8,1.8,,2.64326,49.42945,Baignade loisirs
E001I603950010,I603950010,Piscine des Sablons,Bassin de 25 m,60395,Méru,246000582,CC des Sablons,60,Oise,Centres urbains intermédiaires,Piscine,Piscine,Bassin de natation,Bassin sportif de natation,102,TD6EZZBMEH7T,"Individuel(s),famille(s),Clubs sportifs,comités,ligues,fédérations,Scolaires,universités",25.0,12.5,312.5,0.8,1.9,,2.14285,49.23699,Baignade loisirs
E001I604710011,I604710011,PISCINE MUNICIPALE PAUL BOUTEFEU,Grand Bassin,60471,Noyon,246000756,CC du Pays Noyonnais,60,Oise,Centres urbains intermédiaires,",Piscine",Piscine,Bassin de natation,Bassin sportif de natation,102,,"Individuel(s),famille(s),Clubs sportifs,comités,ligues,fédérations,Scolaires,universités,Autre - association(s) et groupes divers",25.0,12.5,312.5,1.7,3.5,,2.99585,49.57714,Baignade loisirs | Nage avec palmes | Natation course sportive
E001I601590032,I601590032,PISCINE HIVER AVENUE D'HUY,Petit bassin de natation,60159,Compiègne,200067965,CA de la Région de Compiègne et de la Basse Automne,60,Oise,Centres urbains intermédiaires,Piscine,Piscine,Bassin de natation,Bassin mixte de natation,101,ZXBVCHCWGJMC,"Individuel(s),famille(s),Clubs sportifs,comités,ligues,fédérations,Scolaires,universités,Autre - association(s) et groupes divers",13.0,10.0,130.0,0.8,1.3,,2.81726,49.40158,Baignade loisirs
E001I620140013,I620140013,PISCINE IRIS,PISCINE IRIS,62014,Aire-sur-la-Lys,200069037,CA du Pays de Saint-Omer,62,Pas-de-Calais,Petites villes,Piscine,Piscine,Bassin de natation,Bassin sportif de natation,102,,"Individuel(s),famille(s),Clubs sportifs,comités,ligues,fédérations,Scolaires,universités",25.0,10.0,250.0,0.8,2.0,,2.40322,50.64189,Baignade loisirs | Natation course sportive
E001I620400005,I620400005,PISCINE MUNICIPALE,Bassin de natation,62040,Arques,200069037,CA du Pays de Saint-Omer,62,Pas-de-Calais,Ceintures urbaines,Piscine,Piscine,Bassin de natation,Bassin sportif de natation,102,P7SNSKQX3QK9,"Individuel(s),famille(s),Clubs sportifs,comités,ligues,fédérations,Scolaires,universités",25.0,10.0,250.0,1.4,2.2,,2.30396,50.73926,Aquagym | Baignade loisirs | Natation course sportive
E001I620410067,I620410067,PISCINE GEORGES DAULLE,Bassin compétition,62041,Arras,200033579,CU d'Arras,62,Pas-de-Calais,Grands centres urbains,Piscine,Piscine,Bassin de natation,Bassin sportif de natation,102,YR1AQBM3NXX2,"Individuel(s),famille(s),Clubs sportifs,comités,ligues,fédérations,Scolaires,universités,Autre - association(s) et groupes divers",25.0,15.0,375.0,2.0,2.0,,2.74294,50.2975,Baignade loisirs | Natation course sportive | Natation en eau libre | Natation synchronisée
E001I620800008,I620800008,PISCINE INTERCOMMUNALE,Bassin de natation,62080,Bapaume,200035442,CC du Sud-Artois,62,Pas-de-Calais,Bourgs ruraux,Piscine,Piscine,Bassin de natation,Bassin sportif de natation,102,,"Individuel(s),famille(s),Clubs sportifs,comités,ligues,fédérations,Scolaires,universités",25.0,10.0,250.0,0.8,1.8,,2.859793,50.107093,Aquagym | Baignade loisirs | Natation course sportive
E001I620830008,I620830008,"Piscine communautaire à Barlin ""Le NAUTILUD""","Piscine communautaire à Barlin ""Le NAUTILUD""",62083,Barlin,200072460,"CA de Béthune-Bruay, Artois-Lys Romane",62,Pas-de-Calais,Ceintures urbaines,Piscine,Piscine,Bassin de natation,Bassin mixte de natation,101,M8DZ1ZJVNBQF,"Individuel(s),famille(s),Clubs sportifs,comités,ligues,fédérations,Scolaires,universités,Autre - association(s) et groupes divers",29.0,10.0,290.0,0.75,2.0,,2.619896,50.455324,Aquagym | Baignade loisirs | Natation course sportive
E001I621190008,I621190008,CENTRE AQUATIQUE CITE d'O,Bassin TOBOGGAN,62119,Béthune,200072460,"CA de Béthune-Bruay, Artois-Lys Romane",62,Pas-de-Calais,Centres urbains intermédiaires,Piscine,Piscine,Bassin de natation,Bassin de réception de toboggan,106,ZAE2DKN9F8K4,"Individuel(s),famille(s),Clubs sportifs,comités,ligues,fédérations,Scolaires,universités",8.0,8.0,64.0,1.5,1.5,,2.631161,50.533194,Baignade loisirs
E001I621930005,I621930005,PISCINE EMILE RANSON,GRAND BASSIN,62193,Calais,200090751,CA Grand Calais Terres et Mers,62,Pas-de-Calais,Grands centres urbains,Piscine,Piscine,Bassin de natation,Bassin sportif de natation,102,G9Z7DR8MEA8W,"Individuel(s),famille(s),Clubs sportifs,comités,ligues,fédérations,Scolaires,universités",25.0,15.0,375.0,1.8,3.7,,1.847366,50.955142,Aquagym | Baignade loisirs | Natation course sportive | Plongeon | Water-Polo
E001I621930039,I621930039,Complexe Icéo,Espace cardio,62193,Calais,200090751,CA Grand Calais Terres et Mers,62,Pas-de-Calais,Grands centres urbains,"Complexe sportif,Piscine,Patinoire",Complexe sportif | Piscine | Patinoire,Equipement d'activités de forme et de santé,Salle de musculation/cardiotraining,802,EJNAS4SPSAFT,"Individuel(s),famille(s)",,,,,,,1.89623,50.95616,Activités de forme et de santé | Musculation
E001I622700008,I622700008,PISCINE TOURNESOL,PISCINE TOURNESOL,62270,Divion,200072460,"CA de Béthune-Bruay, Artois-Lys Romane",62,Pas-de-Calais,Ceintures urbaines,Piscine,Piscine,Bassin de natation,Bassin sportif de natation,102,,"Individuel(s),famille(s),Clubs sportifs,comités,ligues,fédérations,Scolaires,universités",25.0,10.0,250.0,0.8,2.0,,2.49849,50.47106,Baignade loisirs | Natation course sportive
E001I623610002,I623610002,COMPLEXE SIDONIE GUITTARD,TENNIS CLUB,62361,Frévent,200069672,CC du Ternois,62,Pas-de-Calais,Bourgs ruraux,"Complexe sportif,Piscine",Complexe sportif | Piscine,Court de tennis,Court de tennis,501,4EQCA5DQYRTT,"Clubs sportifs,comités,ligues,fédérations",,,,,,,2.293407,50.274819,Tennis
E001I624570001,I624570001,PARC DEPARTEMENTAL DE NATURE ET DE LOISIRS D'OLHAIN,Salle Polyvalente,62356,Fresnicourt-le-Dolmen,200072460,"CA de Béthune-Bruay, Artois-Lys Romane",62,Pas-de-Calais,Rural à habitat dispersé,"Base de plein air et/ou de loisirs,Piscine",Base de plein air et/ou de loisirs | Piscine,Salle multisports,Salle multisports (gymnase),1901,35469218GVZW,"Individuel(s),famille(s),Clubs sportifs,comités,ligues,fédérations,Scolaires,universités,Autre - association(s) et groupes divers",,,,,,,2.584552,50.436103,Badminton | Jeu de volant | Basket-Ball | Boxe Anglaise | Escrime (Epée / Fleuret / Sabre ) | Football / Football en salle (Futsal) | Handball / Mini hand / Handball de plage | Volley-ball / Volley-ball de plage (beach-volley) / Green-Volley
E001I624980051,I624980051,Aqualens,bassin sportif,62498,Lens,246200364,CA de Lens - Liévin,62,Pas-de-Calais,Grands centres urbains,Piscine,Piscine,Bassin de natation,Bassin sportif de natation,102,,"Individuel(s),famille(s),Clubs sportifs,comités,ligues,fédérations,Scolaires,universités,Autre - association(s) et groupes divers",21.0,50.0,1050.0,2.0,2.0,,2.818379,50.431787,Aquagym | Baignade loisirs | Natation course sportive | Natation synchronisée | Plongée subaquatique (Plongée libre) | Water-Polo
E001I625490001,I625490001,Aquatic & Bowling Center de l'Hesdinois,Bassin sportif,62549,Marconne,200044030,CC des 7 Vallées,62,Pas-de-Calais,Petites villes,Piscine,Piscine,Bassin de natation,Bassin sportif de natation,102,,"Individuel(s),famille(s),Scolaires,universités,Autre - association(s) et groupes divers",25.0,10.0,250.0,0.9,2.0,,2.03215,50.364713,Aquagym | Natation course sportive
E004I601590027,I601590027,Plaine des sports Zac Mercieres,Terrain de football stabilisé,60159,Compiègne,200067965,CA de la Région de Compiègne et de la Basse Automne,60,Oise,Centres urbains intermédiaires,"Complexe sportif,Piscine,Patinoire",Complexe sportif | Piscine | Patinoire,Terrain de grands jeux,Terrain de football,2802,,"Clubs sportifs,comités,ligues,fédérations,Scolaires,universités",,,,,,,2.78311,49.38525,Football / Football en salle (Futsal)
E001I800210027,I800210027,Piscine Le Nautilus (structurant),Fosse à plongée,80021,Amiens,248000531,CA Amiens Métropole,80,Somme,Grands centres urbains,Piscine,Piscine,Bassin de natation,Fosse à plongée,105,,"Clubs sportifs,comités,ligues,fédérations,Scolaires,universités,Autre - association(s) et groupes divers",,,45.0,3.0,15.0,,2.311935,49.91068,Plongée en apnée | Plongée subaquatique (Plongée libre)
E004I591390015,I591390015,Espace Nautique Intercommunal (ENI),Toboggan,59139,Caudry,200030633,CA du Caudrésis et du Catésis,59,Nord,Centres urbains intermédiaires,Piscine,Piscine,Bassin de natation,Bassin de réception de toboggan,106,DRERWZMSTKC9,"Individuel(s),famille(s),Scolaires,universités,Autre - association(s) et groupes divers",,,0.0,,,,3.39567,50.12827,Baignade loisirs
E004I591720022,I591720022,Centre Aqualudique Natur&O,Toboggan,59172,Denain,200042190,CA de la Porte du Hainaut,59,Nord,Centres urbains intermédiaires,Piscine,Piscine,Bassin de natation,Bassin de réception de toboggan,106,QRCZY959RKH3,"Individuel(s),famille(s),Clubs sportifs,comités,ligues,fédérations,Scolaires,universités,Autre - association(s) et groupes divers",,,,,,,3.393402,50.322217,Baignade loisirs
E004I592860012,I592860012,"Centre Aquatique Loos Haubourdin ""NEPTUNIA""",Bassin ludique,59286,Haubourdin,200093201,Métropole Européenne de Lille,59,Nord,Grands centres urbains,Piscine,Piscine,Bassin de natation,Bassin ludique de natation,103,N87HD4E2E758,"Individuel(s),famille(s),Clubs sportifs,comités,ligues,fédérations,Scolaires,universités",,,327.0,0.7,1.3,,2.9967,50.6145,Baignade loisirs
E004I593400009,I593400009,PISCINE PAUL HANCOLAS ET SALLE DEMARTINICOURT,PLATEAU D EVOLUTION,59340,Leffrinckoucke,245900428,CU de Dunkerque,59,Nord,Grands centres urbains,"Piscine,Complexe sportif",Piscine | Complexe sportif,Multisports/City-stades,Multisports/City-stades,1701,,"Scolaires,universités",,,,,,,2.43891,51.05523,Football / Football en salle (Futsal)
E004I593500108,I593500108,Piscine Olympique Marx Dormoy,Salle musculation Max Dormoy,59350,Lille,200093201,Métropole Européenne de Lille,59,Nord,Grands centres urbains,Piscine,Piscine,Equipement d'activités de forme et de santé,Salle de musculation/cardiotraining,802,XDYHHG2N1Y5G,"Clubs sportifs,comités,ligues,fédérations",,,,,,,3.033149,50.63673,Musculation
E001I591630006,I591630006,Piscine Municipale,Piscine Grand Bassin Croix,59163,Croix,200093201,Métropole Européenne de Lille,59,Nord,Grands centres urbains,Piscine,Piscine,Bassin de natation,Bassin sportif de natation,102,,"Individuel(s),famille(s),Clubs sportifs,comités,ligues,fédérations,Scolaires,universités",25.0,12.5,312.5,2.2,2.2,,3.14928,50.67693,Aquagym | Natation course sportive
E001I591720022,I591720022,Centre Aqualudique Natur&O,Bassin Sportif,59172,Denain,200042190,CA de la Porte du Hainaut,59,Nord,Centres urbains intermédiaires,Piscine,Piscine,Bassin de natation,Bassin sportif de natation,102,QRCZY959RKH3,"Individuel(s),famille(s),Clubs sportifs,comités,ligues,fédérations,Scolaires,universités,Autre - association(s) et groupes divers",25.0,21.0,525.0,2.0,2.0,,3.393402,50.322217,Natation course sportive
E001I591830058,I591830058,PISCINE PAUL ASSEMAN,Bassin Sportif,59183,Dunkerque,245900428,CU de Dunkerque,59,Nord,Grands centres urbains,Piscine,Piscine,Bassin de natation,Bassin sportif de natation,102,1QRWDV52174Z,"Individuel(s),famille(s),Clubs sportifs,comités,ligues,fédérations,Scolaires,universités,Autre - association(s) et groupes divers",50.0,21.0,1050.0,1.8,2.0,,2.386715,51.047141,Baignade loisirs | Natation course sportive | Natation synchronisée
E001I591970005,I591970005,SWIM CENTER PEVELE,Swim Center - Espace Aquatique,59197,Ennevelin,200041960,CC Pévèle-Carembault,59,Nord,Bourgs ruraux,Piscine,Piscine,Bassin de natation,Bassin ludique de natation,103,,"Individuel(s),famille(s),Autre - association(s) et groupes divers",10.4,6.2,64.5,1.3,1.3,,3.12945,50.51731,Aquagym | Natation en eau libre
E001I592490005,I592490005,PISCINE MUNICIPALE,BOXE,59249,Fourmies,200043404,CC du Sud Avesnois,59,Nord,Centres urbains intermédiaires,Piscine,Piscine,Salle de combat,Salle de boxe,1802,,"Clubs sportifs,comités,ligues,fédérations,Scolaires,universités",,,,,,,4.05164,50.01921,Boxe Anglaise
E001I592710025,I592710025,Piscine Léo Lagrange,Grand Bassin,59271,Grande-Synthe,245900428,CU de Dunkerque,59,Nord,Grands centres urbains,Piscine,Piscine,Bassin de natation,Bassin sportif de natation,102,Y4N3G8A377NY,"Individuel(s),famille(s),Clubs sportifs,comités,ligues,fédérations,Scolaires,universités,Autre - association(s) et groupes divers",25.0,20.0,500.0,1.6,2.0,,2.3022,51.01925,Aquagym | Baignade loisirs | Natation course sportive | Plongée subaquatique (Plongée libre) | Sauvetage en eau plate | Triathlon | Water-Polo
E001I592730013,I592730013,complexe Maurice Baude et Piscine Municipale,Grand bassin Piscine municipale,59273,Gravelines,245900428,CU de Dunkerque,59,Nord,Petites villes,Piscine,Piscine,Bassin de natation,Bassin sportif de natation,102,P9X7J7CAAR3G,"Individuel(s),famille(s),Clubs sportifs,comités,ligues,fédérations,Scolaires,universités,Autre - association(s) et groupes divers",25.0,10.0,250.0,1.9,1.9,,2.137635,50.986139,Natation course sportive | Natation synchronisée | Triathlon
E001I592910011,I592910011,Piscine André Leduc,Grand Bassin,59291,Hautmont,200043396,CA Maubeuge Val de Sambre,59,Nord,Centres urbains intermédiaires,Piscine,Piscine,Bassin de natation,Bassin sportif de natation,102,GKEWWJFDA5NN,"Individuel(s),famille(s),Clubs sportifs,comités,ligues,fédérations,Scolaires,universités,Autre - association(s) et groupes divers",25.0,15.0,375.0,1.8,3.2,,3.92723,50.24661,Baignade loisirs | Hockey subaquatique | Natation course sportive | Plongée subaquatique (Plongée libre)
E001I594100005,I594100005,PISCINE MUNICIPALE,Bassin de natation,59410,Mons-en-Barœul,200093201,Métropole Européenne de Lille,59,Nord,Grands centres urbains,Piscine,Piscine,Bassin de natation,Bassin sportif de natation,102,6JTSF3Z86QXT,"Individuel(s),famille(s),Clubs sportifs,comités,ligues,fédérations,Scolaires,universités",25.0,15.0,375.0,1.8,2.5,,3.10654,50.63978,Natation course sportive | Natation synchronisée | Plongée subaquatique (Plongée libre)
E001I594490006,I594490006,PISCINE MUNICIPALE,BASSIN,59449,Orchies,200041960,CC Pévèle-Carembault,59,Nord,Centres urbains intermédiaires,Piscine,Piscine,Bassin de natation,Bassin sportif de natation,102,,"Individuel(s),famille(s),Clubs sportifs,comités,ligues,fédérations,Scolaires,universités,Autre - association(s) et groupes divers",25.0,10.0,250.0,0.8,2.0,,3.24432,50.465918,Aquagym | Baignade loisirs | Natation course sportive | Natation synchronisée
E001I594910002,I594910002,piscine Louis Poncet,Piscine Louis Poncet,59491,Raismes,200042190,CA de la Porte du Hainaut,59,Nord,Grands centres urbains,Piscine,Piscine,Bassin de natation,Bassin sportif de natation,102,99BP2XQDMZHC,"Individuel(s),famille(s),Clubs sportifs,comités,ligues,fédérations,Scolaires,universités,Autre - association(s) et groupes divers",25.0,10.0,250.0,0.8,1.8,,3.483589,50.394718,Activités de forme et de santé | Aquagym | Baignade loisirs | Natation course sportive | Triathlon
E001I594950004,I594950004,PISCINE INTERCOMMUNALE,BASSIN Sportif,59495,Recquignies,200043396,CA Maubeuge Val de Sambre,59,Nord,Ceintures urbaines,Piscine,Piscine,Bassin de natation,Bassin sportif de natation,102,SHDPWFFF3VY3,"Individuel(s),famille(s),Clubs sportifs,comités,ligues,fédérations,Scolaires,universités,Autre - association(s) et groupes divers",25.0,10.0,250.0,0.8,2.0,,4.043162,50.287516,Aquagym | Baignade loisirs | Natation course sportive
E001I595080005,I595080005,PISCINE,PISCINE,59508,Roncq,200093201,Métropole Européenne de Lille,59,Nord,Grands centres urbains,Piscine,Piscine,Bassin de natation,Bassin sportif de natation,102,HDS5J5X176J6,"Individuel(s),famille(s),Clubs sportifs,comités,ligues,fédérations,Scolaires,universités",25.0,10.0,250.0,0.9,2.0,,3.12438,50.75539,Aquagym | Natation course sportive
E001I595860007,I595860007,Centre aquatique le Chant de l'Eau,bassin natation,59586,Templeuve-en-Pévèle,200041960,CC Pévèle-Carembault,59,Nord,Petites villes,Piscine,Piscine,Bassin de natation,Bassin sportif de natation,102,,"Individuel(s),famille(s),Clubs sportifs,comités,ligues,fédérations,Scolaires,universités",15.0,25.0,375.0,1.4,2.0,,3.154728,50.516824,Baignade loisirs
